stop_id,stop_code,stop_name,stop_desc,stop_lat,stop_lon,stop_url,stop_timezone,location_type,parent_station
ROME9500,04963,"Umanesimo/S. Eugenio","",41.822685,12.472128,"",,,
ROME9559,04973,"Castro Pretorio","",41.905834,12.505718,"",,,
ROME9563,04974,"S.m. Battaglia","",41.905788,12.504955,"",,,
ROME9593,04975,"Lucrezia Romana/Pellaro","",41.834267,12.576397,"",,,
ROME9351,05000,"Piazza Dei Cinquecento","",41.901299,12.500420,"",,,
ROME9355,05001,"Nervi/Palazzo Sport","",41.823818,12.466082,"",,,
ROME9356,05004,"Agricoltura","",41.836689,12.471420,"",,,
ROME9357,05013,"Piazza Augusto Imperatore","",41.905235,12.477285,"",,,
ROME9358,05015,"Mancini","",41.930969,12.464190,"",,,
ROME9359,05016,"Cornelia","",41.904362,12.424915,"",,,
ROME9360,05019,"Anagnina","",41.842972,12.584973,"",,,
ROME9361,05020,"Arco Di Travertino","",41.866749,12.536497,"",,,
ROME9362,05021,"Clodio","",41.918041,12.456313,"",,,
ROME9363,05022,"Laurentina","",41.826874,12.480737,"",,,
ROME1,10001,"Conca D'oro","DOPO PZA CONCA D'ORO - AREA PARCHEGGIO - CAPOLINEA 86-93-336-337-343 (CAPOLINEA INOPEROSO)",41.938545,12.525913,"http://muovi.roma.it/percorso/js?query=&cl=1",Europe/Rome,,
ROME2,10002,"Borgo Sant'angelo","",41.903221,12.463745,"",,,
ROME3,10003,"Cimitero Laurentino","ALTEZZA RIQUADRO 14 - CAPOLINEA C8-C11-C13 (CAPOLINEA INOPEROSO)",41.760880,12.494687,"http://muovi.roma.it/percorso/js?query=&cl=1",Europe/Rome,,
ROME4,10004,"San Giovanni","",41.886021,12.510527,"",,,
ROME9602,10010,"Staz.ne Tiburtina","",41.909870,12.528813,"",,,
ROME9615,10011,"Staz.ne Tiburtina","",41.909828,12.528752,"",,,
ROME9614,10012,"Staz.ne Tiburtina","",41.909786,12.528680,"",,,
ROME9613,10013,"Staz.ne Tiburtina Mb","",41.909760,12.528565,"",,,
ROME9616,10014,"Staz.ne Tiburtina","",41.909737,12.528440,"",,,
ROME9617,10015,"Staz.ne Tiburtina","",41.910416,12.529677,"",,,
ROME9618,10016,"Tiburtina/Castro Laurenziano","",41.903942,12.520808,"",,,
ROME9583,10017,"Umanesimo/Urali","ALTEZZA CIVICO 78",41.823200,12.470095,"http://muovi.roma.it/percorso/js?query=&cl=1",Europe/Rome,,
ROME9701,10018,"Tiburtina","",41.910091,12.529058,"",,,
ROME9509,10037,"Brunetti","",41.787811,12.490190,"",,,
ROME5,20003,"Rocca Cencia/Gioiosa Jonica","40 M. DOPO VIA SERRA PEDACE",41.867584,12.689102,"http://muovi.roma.it/percorso/js?query=&cl=1",Europe/Rome,,
ROME7,20006,"Castel Porziano/Mariani","25 M. DOPO VIA MARIANI PRIMA CIVICO 485",41.737614,12.372494,"http://muovi.roma.it/percorso/js?query=&cl=1",Europe/Rome,,
ROME9,20014,"Gordiani/Amalfi","",41.886406,12.554405,"",,,
ROME10,20018,"Cimitero Laurentino","ALTEZZA RIQUADRO 17",41.760571,12.489053,"http://muovi.roma.it/percorso/js?query=&cl=1",Europe/Rome,,
ROME13,20027,"Tradate/Bareggio","",41.791451,12.329547,"",,,
ROME14,20028,"Tiburtina/Lino Da Parma","ALTEZZA KM.10+360 SINISTRA DOPO FRONTE CIVICO 1040",41.932140,12.581147,"http://muovi.roma.it/percorso/js?query=&cl=1",Europe/Rome,,
ROME15,20029,"Tiburtina/Tor Cervara","200 M.DOPO VIA TOR CERVARA FRONTE CIVICO 1095/A",41.932732,12.588327,"http://muovi.roma.it/percorso/js?query=&cl=1",Europe/Rome,,
ROME16,20030,"Tiburtina/Tivoli","50 M.DOPO VIA TIVOLI DOPO FRONTE CIVICO 1119",41.932953,12.590991,"http://muovi.roma.it/percorso/js?query=&cl=1",Europe/Rome,,
ROME17,20033,"Cimitero/V.le Uffici","VLE UFFICI / 100 M. DOPO INGRESSO SUD CIMITERO",42.008465,12.493485,"http://muovi.roma.it/percorso/js?query=&cl=1",Europe/Rome,,
ROME19,20037,"Selva Candida/Basaluzzo","",41.932186,12.376708,"",,,
ROME20,20038,"Selva Candida/Basaluzzo","",41.932072,12.376887,"",,,
ROME21,20040,"Donna Olimpia/Fiorini","",41.875229,12.454800,"",,,
ROME22,20078,"Moschea/Forte Antenne","",41.934803,12.495748,"",,,
ROME23,20079,"Sacro Cuore Di Maria/Euclide","",41.927460,12.481900,"",,,
ROME26,20083,"Volpato/Radio","",41.871407,12.467342,"",,,
ROME27,20084,"Volpato/Radio","",41.871880,12.467523,"",,,
ROME28,20097,"Incisa Val D'arno","",41.978962,12.509112,"",,,
ROME29,20098,"Incisa Val D'arno","",41.979122,12.509057,"",,,
ROME30,20099,"Cavaceppi/Vico Consorti","",41.795616,12.432582,"",,,
ROME31,20100,"L.go Valsabbia","",41.942867,12.515870,"",,,
ROME32,20101,"L.go Valsabbia","",41.942928,12.515972,"",,,
ROME34,20103,"Emo/Di Bartolo","",41.902462,12.441240,"",,,
ROME35,20106,"Cave Di Pietralata","",41.912731,12.540768,"",,,
ROME36,20107,"Cave Di Pietralata","",41.912804,12.540922,"",,,
ROME39,20113,"Monti Tiburtini/Pertini","",41.918552,12.538215,"",,,
ROME40,20114,"Monti Tiburtini/Pertini","",41.919167,12.537018,"",,,
ROME41,20115,"Tiburtina/Morolo","",41.937481,12.618545,"",,,
ROME42,20116,"Tiburtina/Salone","",41.937958,12.620367,"",,,
ROME44,20118,"Stazione Prima Porta","",42.000061,12.493907,"",,,
ROME45,20121,"Aurelia/Persichetti","",41.882988,12.340980,"",,,
ROME46,20124,"Garibaldi/Fabrizi","",41.887627,12.466643,"",,,
ROME48,20128,"Partenope/Irpinia","10 M. PRIMA VIA FONTANAROSA",41.892403,12.550900,"http://muovi.roma.it/percorso/js?query=&cl=1",Europe/Rome,,
ROME52,20133,"Tiburtina/Nasini","50 M. DOPO CASA CIRCONDARIALE REBIBBIA ALTEZZA VIA MAJETTI",41.929436,12.577088,"http://muovi.roma.it/percorso/js?query=&cl=1",Europe/Rome,,
ROME53,20136,"Trigoria/Andriuli","",41.762047,12.477578,"",,,
ROME55,20138,"Pesenti/Tiburtina","",41.932140,12.599452,"",,,
ROME58,20142,"Tiburtina/Castel Madama","",41.933758,12.603652,"",,,
ROME59,20143,"Tiburtina/Pesenti","30 M. DOPO VIA SMERILLO PRIMA FRONTE CIVICO 1180",41.932850,12.597967,"http://muovi.roma.it/percorso/js?query=&cl=1",Europe/Rome,,
ROME60,20147,"Tiburtina/Tor Cervara","10 M. PRIMA SBOCCO VIA TOR CERVARA",41.932713,12.586050,"http://muovi.roma.it/percorso/js?query=&cl=1",Europe/Rome,,
ROME61,20149,"Rocca Cencia/Stabilimento Ama","",41.884918,12.695312,"",,,
ROME62,20152,"Tiburtina/Nasini","FRONTE CASA CIRCONDARIALE REBIBBIA ALTEZZA CIVICO 998",41.929832,12.577412,"http://muovi.roma.it/percorso/js?query=&cl=1",Europe/Rome,,
ROME63,20159,"Casal Boccone/Almaviva","",41.957863,12.557417,"",,,
ROME66,20171,"Casal Boccone/Ojetti","",41.952229,12.559133,"",,,
ROME67,20178,"Casal Boccone/Almaviva","",41.957893,12.557007,"",,,
ROME68,20181,"Fioranello/Ardeatina","",41.795486,12.535373,"",,,
ROME69,20182,"Fioranello/Civico 186","",41.794304,12.537462,"",,,
ROME75,20199,"Tiburtina/Lino Da Parma","",41.931576,12.579860,"",,,
ROME78,20215,"Morosini E./Nuovo Regina Margherita","",41.885857,12.469258,"",,,
ROME79,20217,"Xxi Aprile/Nardini","30 M. PRIMA VIA NARDINI",41.917965,12.520179,"http://muovi.roma.it/percorso/js?query=&cl=1",Europe/Rome,,
ROME82,20265,"Oslavia/Bainsizza","",41.918900,12.461548,"",,,
ROME83,20288,"Levi Civita","",41.855587,12.473063,"",,,
ROME84,20295,"Mameli","",41.888046,12.467605,"",,,
ROME85,20296,"Garibaldi/Iacobucci","",41.888466,12.466005,"",,,
ROME87,20300,"Chiodelli/Corbellini","60 M. DOPO SBOCCO VIA GUIDO CORBELLINI",41.907875,12.662415,"http://muovi.roma.it/percorso/js?query=&cl=1",Europe/Rome,,
ROME89,20308,"Acquedotto Del Peschiera","20 M. PRIMA VIA DELL'ACQUEDOTTO PAOLO",41.936466,12.425338,"http://muovi.roma.it/percorso/js?query=&cl=1",Europe/Rome,,
ROME91,20313,"Boston","30 M. PRIMA VLE AMERICA",41.829029,12.471226,"http://muovi.roma.it/percorso/js?query=&cl=1",Europe/Rome,,
ROME92,20321,"Boston","30 M. PRIMA VLE EUROPA",41.829681,12.471742,"http://muovi.roma.it/percorso/js?query=&cl=1",Europe/Rome,,
ROME93,20323,"Mameli","",41.888390,12.467558,"",,,
ROME94,20332,"Civitacampomarano/Case Rosse","17 M. PRIMA VIA CASE ROSSE",41.931995,12.643026,"http://muovi.roma.it/percorso/js?query=&cl=1",Europe/Rome,,
ROME96,20353,"S. Arcangelo Di Romagna","",41.789932,12.407785,"",,,
ROME97,20354,"Stazione Grottarossa","",41.964008,12.488963,"",,,
ROME99,20364,"Laurentina/Tor Pagnotta","",41.802708,12.481653,"",,,
ROME100,20369,"Laurentina/Cimitero Laurentino","ALTEZZA ROTATORIA CIMITERO LAURENTINO",41.764160,12.498068,"http://muovi.roma.it/percorso/js?query=&cl=1",Europe/Rome,,
ROME101,20370,"Laurentina/Mandriola","70 M. PRIMA FRONTE CIVICO  1351",41.761257,12.500043,"http://muovi.roma.it/percorso/js?query=&cl=1",Europe/Rome,,
ROME102,20374,"Laurentina/Civico 1569","35 M. DOPO CIVICO 1569",41.745728,12.503460,"http://muovi.roma.it/percorso/js?query=&cl=1",Europe/Rome,,
ROME103,20375,"Laurentina/Cimitero Laurentino","20 M. PRIMA ROTATORIA CIMITERO LAURENTINO",41.763710,12.499105,"http://muovi.roma.it/percorso/js?query=&cl=1",Europe/Rome,,
ROME9512,20379,"Bella Villa","",41.873314,12.577322,"",,,
ROME105,20380,"Laurentina/Boscotrecase","15 M. DOPO VIA SANTA SERENA - ALTEZZA CIVICO 1529",41.748745,12.501545,"http://muovi.roma.it/percorso/js?query=&cl=1",Europe/Rome,,
ROME107,20388,"G.R.A.","",41.857697,12.376755,"",,,
ROME9489,20389,"Colosseo","",41.891312,12.492332,"",,,
ROME108,20398,"Cornelia/Villata","80 M. DOPO VIA VILLATA FRONTE CIVICO 215A",41.899738,12.389355,"http://muovi.roma.it/percorso/js?query=&cl=1",Europe/Rome,,
ROME109,20400,"Oceano Pacifico/Velodromo","",41.824989,12.456078,"",,,
ROME110,20409,"Teano","10 M. PRIMA VIA CAIRANO",41.890202,12.551109,"http://muovi.roma.it/percorso/js?query=&cl=1",Europe/Rome,,
ROME111,20416,"Pta S. Sebastiano/Sepolcro Scipioni","",41.873798,12.501360,"",,,
ROME112,20423,"VINCI","",41.938183,12.419372,"",,,
ROME113,20424,"Pitagora","",41.921555,12.489655,"",,,
ROME117,20443,"Tiburtina/Zoe Fontana","ALTEZZA CIVICO 1268",41.934364,12.608293,"http://muovi.roma.it/percorso/js?query=&cl=1",Europe/Rome,,
ROME122,20501,"Cambellotti","",41.869438,12.631973,"",,,
ROME123,30156,"Sirene","",41.736038,12.272753,"",,,
ROME129,30519,"De Carolis/Nicolai F.","",41.913914,12.440982,"",,,
ROME131,30536,"Bufalotta/Fucini","",41.952446,12.543373,"",,,
ROME9352,30547,"Tiburtina/Castel Madama","",41.933811,12.605020,"",,,
ROME9619,30552,"Liburni","",41.900494,12.512252,"",,,
ROME9462,30560,"Europa/Tolstoi","",41.831055,12.468182,"",,,
ROME9556,30563,"Staz.ne Metro Cipro","",41.907108,12.448207,"",,,
ROME9604,30568,"S. Luca Evangelista","",41.887630,12.537542,"",,,
ROME9695,30571,"P.za Venezia","",41.895432,12.481947,"",,,
ROME9720,30585,"Taranto/ Pontremoli","",41.885162,12.511903,"",,,
ROME9627,40033,"Cornelia","",41.904255,12.425138,"",,,
ROME135,70002,"Flaminia/Cantalupo","",41.954903,12.484548,"",,,
ROME136,70003,"Flaminia/Tor Di Quinto","",41.951973,12.484668,"",,,
ROME9258,70004,"Flaminia/Monterosi","",41.951023,12.480733,"",,,
ROME9259,70005,"Flaminia/Cappelli R.","",41.949772,12.478958,"",,,
ROME9260,70006,"Flaminia/Morlupo","",41.947815,12.475602,"",,,
ROME9261,70007,"Flaminia/Nitti","",41.946297,12.473415,"",,,
ROME9262,70008,"Flaminia/Bevagna","",41.944302,12.472062,"",,,
ROME137,70009,"C.so Francia/Flaminia","60 M. PRIMA VIA HONDURAS",41.940731,12.470782,"http://muovi.roma.it/percorso/js?query=&cl=1",Europe/Rome,,
ROME138,70010,"Tor Di Quinto/Riano","20 M. DOPO VIA RIANO",41.937107,12.469628,"http://muovi.roma.it/percorso/js?query=&cl=1",Europe/Rome,,
ROME139,70011,"Mozart/Sibelius","",41.912182,12.563843,"",,,
ROME140,70012,"Mozart/Badile","",41.914188,12.562372,"",,,
ROME142,70014,"Lgt Thaon Di Revel/Foro Italico","50 M. DOPO SBOCCO PONTE DUCA D'AOSTA",41.931099,12.462859,"http://muovi.roma.it/percorso/js?query=&cl=1",Europe/Rome,,
ROME143,70015,"Lgt Thaon Di Revel/Romano","",41.933331,12.465273,"",,,
ROME144,70017,"Flaminia/Calderini","",41.931271,12.467823,"",,,
ROME145,70018,"Flaminia/Carracci","",41.929508,12.468508,"",,,
ROME146,70019,"Flaminia/Reni","",41.927795,12.469225,"",,,
ROME147,70020,"Flaminia/Vignola","",41.924992,12.470365,"",,,
ROME148,70021,"Flaminia/Fracassini","",41.922920,12.471217,"",,,
ROME149,70023,"Litoranea/Varco 5","",41.658611,12.414415,"",,,
ROME150,70026,"Del Fiocco/Valle Giulia","",41.913689,12.480627,"",,,
ROME151,70027,"Victor Hugo/Museo Bilotti","",41.912987,12.483458,"",,,
ROME152,70029,"Victor Hugo/Museo Bilotti","",41.913338,12.482812,"",,,
ROME153,70030,"Del Fiocco/Valle Giulia","",41.913784,12.481062,"",,,
ROME154,70031,"Repubblica","",41.902508,12.497133,"",,,
ROME155,70032,"Nazionale/Torino","",41.901882,12.494925,"",,,
ROME156,70033,"Villa Borghese/Washington","",41.912491,12.477485,"",,,
ROME157,70034,"Nazionale/Quattro Fontane","",41.900162,12.492303,"",,,
ROME158,70035,"Nazionale/Palazzo Esposizioni","",41.899139,12.490738,"",,,
ROME159,70036,"Litoranea/Varco 4","",41.660835,12.411013,"",,,
ROME160,70037,"Nazionale/Quirinale","",41.896973,12.487435,"",,,
ROME161,70038,"P.za Venezia","",41.896828,12.482848,"",,,
ROME162,70039,"Piazza Della Marina","70 M. DOPO SBOCCO VIA D. AZUNI",41.915817,12.474329,"http://muovi.roma.it/percorso/js?query=&cl=1",Europe/Rome,,
ROME163,70041,"Flaminia/Villa Giulia","10 M. PRIMA VIA DI VILLA GIULIA",41.917877,12.473426,"http://muovi.roma.it/percorso/js?query=&cl=1",Europe/Rome,,
ROME164,70042,"Argentina","",41.896122,12.476855,"",,,
ROME165,70044,"C.so Vittorio Emanuele/S. A. Della Valle","",41.896572,12.473893,"",,,
ROME167,70046,"Litoranea/Varco 3","",41.665524,12.404817,"",,,
ROME168,70047,"Tiziano/Apollodoro","",41.929401,12.469528,"",,,
ROME169,70048,"Tiziano/Xvii Olimpiade","",41.932297,12.468382,"",,,
ROME170,70049,"C.so Vittorio Emanuele/Navona","",41.897194,12.471447,"",,,
ROME171,70050,"Litoranea/Varco 2","",41.670666,12.398348,"",,,
ROME172,70051,"Lgt Thaon Di Revel/P. Milvio","",41.934372,12.466750,"",,,
ROME173,70052,"Lgt Thaon Di Revel/Romano","",41.933151,12.464710,"",,,
ROME174,70053,"C.so Vittorio Emanuele/Tassoni","",41.898827,12.467495,"",,,
ROME175,70054,"Ponte Vittorio Emanuele","30 M. DOPO VIA PAOLA",41.900455,12.465338,"http://muovi.roma.it/percorso/js?query=&cl=1",Europe/Rome,,
ROME176,70055,"Lgt Thaon Di Revel/Duca D'aosta","55 M. PRIMA PONTE DUCA D'AOSTA",41.931217,12.462502,"http://muovi.roma.it/percorso/js?query=&cl=1",Europe/Rome,,
ROME177,70057,"Lgt M.llo Diaz/De Bosis","130 M. DOPO PONTE DUCA D'AOSTA",41.932686,12.460698,"http://muovi.roma.it/percorso/js?query=&cl=1",Europe/Rome,,
ROME178,70059,"Litoranea/Varco 1","",41.672104,12.395833,"",,,
ROME179,70061,"Lgt M.llo Diaz/Ponte Milvio","30 M. PRIMA SBOCCO L.GO M.LLO DIAZ",41.935577,12.464806,"http://muovi.roma.it/percorso/js?query=&cl=1",Europe/Rome,,
ROME180,70064,"Litoranea/Varco 1","",41.671417,12.396660,"",,,
ROME181,70065,"C.so Francia/Flaminia","45 M.DOPO VIA B. GOSIO",41.940807,12.471059,"http://muovi.roma.it/percorso/js?query=&cl=1",Europe/Rome,,
ROME9263,70066,"Flaminia/Bevagna","",41.944962,12.472668,"",,,
ROME182,70067,"Acciaioli","",41.899742,12.464937,"",,,
ROME9264,70068,"Flaminia/Nitti","",41.946590,12.473805,"",,,
ROME9265,70069,"Flaminia/Morlupo","",41.947723,12.476433,"",,,
ROME183,70070,"C.so Vittorio Emanuele/Tassoni","",41.898945,12.467087,"",,,
ROME9266,70071,"Flaminia/Cappelli R.","",41.948902,12.478452,"",,,
ROME184,70072,"Chiesa Nuova","",41.897484,12.469615,"",,,
ROME185,70073,"C.so Vittorio Emanuele/Navona","",41.897003,12.471770,"",,,
ROME9267,70074,"Flaminia/Monterosi","",41.950912,12.481103,"",,,
ROME186,70075,"Litoranea/Varco 2","",41.669884,12.399002,"",,,
ROME187,70076,"Litoranea/Varco 3","",41.664963,12.405092,"",,,
ROME188,70078,"P.za Venezia","",41.896736,12.483128,"",,,
ROME189,70079,"Nazionale/Quirinale","",41.897053,12.487842,"",,,
ROME190,70080,"Flaminia/Cantalupo","",41.954643,12.484863,"",,,
ROME191,70081,"Nazionale/Palazzo Esposizioni","",41.898457,12.489903,"",,,
ROME192,70082,"Nazionale/Quattro Fontane","",41.899986,12.492285,"",,,
ROME193,70083,"Staz.ne Due Ponti","",41.955570,12.484942,"",,,
ROME194,70084,"Nazionale/Torino","",41.901844,12.495113,"",,,
ROME195,70085,"Terme Diocleziano","",41.901829,12.497102,"",,,
ROME196,70087,"Litoranea/Varco 4","",41.660896,12.410602,"",,,
ROME197,70088,"Litoranea/Varco 5","",41.658230,12.414757,"",,,
ROME198,70092,"Tomacelli","",41.904892,12.476105,"",,,
ROME199,70093,"Gregorio Vii/Ranucci","20 M. DOPO VIA RANUCCI  CORSIA CENTRALE",41.896553,12.449890,"http://muovi.roma.it/percorso/js?query=&cl=1",Europe/Rome,,
ROME200,70095,"Lago Maggiore","",41.648594,12.431090,"",,,
ROME201,70096,"Po/Sesia","",41.658859,12.422413,"",,,
ROME204,70100,"P.za Della Rovere","65 M. DOPO LA GALLERIA PRINCIPE AMEDEO AOSTA",41.899494,12.461544,"http://muovi.roma.it/percorso/js?query=&cl=1",Europe/Rome,,
ROME205,70101,"Lgt Gianicolense/Regina Coeli","",41.896156,12.464817,"",,,
ROME206,70102,"Lgt Farnesina","",41.894402,12.466920,"",,,
ROME207,70103,"Lgt Farnesina/Trilussa","",41.892414,12.469458,"",,,
ROME208,70104,"Gianicolense/Casaletto","",41.877514,12.441270,"",,,
ROME209,70105,"Arenula/Min. G. Giustizia","",41.892246,12.474800,"",,,
ROME212,70108,"Cernaia","",41.904663,12.497770,"",,,
ROME213,70110,"Palestro","",41.907990,12.500583,"",,,
ROME214,70111,"Porta Pia","",41.908657,12.502130,"",,,
ROME215,70112,"Croce Rossa","",41.908047,12.504278,"",,,
ROME216,70117,"Padre Semeria/Valignano","",41.865730,12.494665,"",,,
ROME217,70118,"Ravenna/Piazza","",41.912991,12.518927,"",,,
ROME218,70120,"Lorenzo Il Magnifico/Stamira","",41.913143,12.521843,"",,,
ROME219,70121,"Lorenzo Il Magnifico/G.da Procida","",41.911915,12.525502,"",,,
ROME220,70122,"Lorenzo Il Magnifico/Teodorico","",41.910942,12.528423,"",,,
ROME221,70123,"Staz.ne Tiburtina","",41.909801,12.529515,"",,,
ROME222,70124,"Padre Semeria/Colombo","",41.863518,12.496555,"",,,
ROME9268,70126,"Bologna","",41.914520,12.522198,"",,,
ROME223,70127,"Ravenna/Piazza","",41.913158,12.519220,"",,,
ROME224,70128,"Catanzaro","",41.911877,12.517157,"",,,
ROME225,70130,"Chianesi","",41.802704,12.447833,"",,,
ROME226,70133,"Policlinico","",41.909092,12.507403,"",,,
ROME227,70134,"C.so Francia/Uruguay","",41.935036,12.472067,"",,,
ROME228,70135,"Croce Rossa","",41.908455,12.503198,"",,,
ROME229,70136,"Porta Pia","",41.909096,12.502025,"",,,
ROME230,70137,"Xx Settembre/Piave","",41.907036,12.498207,"",,,
ROME231,70138,"Xx Settembre/Min. Finanze","",41.905632,12.496195,"",,,
ROME233,70140,"C.so Francia/Ponte Flaminio","",41.937973,12.471553,"",,,
ROME235,70142,"C.so Francia/Bodio","35 M. PRIMA SBOCCO VIA L.BODIO DOPO CIVICO 196",41.944389,12.469523,"http://muovi.roma.it/percorso/js?query=&cl=1",Europe/Rome,,
ROME236,70143,"Villa Severini","",41.946655,12.469887,"",,,
ROME238,70145,"Cassia/Jacini","",41.948696,12.469782,"",,,
ROME239,70148,"Cassia/Fabbroni","",41.951263,12.467907,"",,,
ROME240,70149,"Lgt Vallati/Pettinari","",41.892387,12.471797,"",,,
ROME241,70150,"Cassia/Inviolatella Borghese","",41.956837,12.460583,"",,,
ROME242,70151,"Lgt Tebaldi/Armata","",41.895077,12.468440,"",,,
ROME243,70152,"Cassia/Oriolo Romano","",41.957458,12.457735,"",,,
ROME246,70155,"Cassia/S. Godenzo","",41.960033,12.452652,"",,,
ROME249,70161,"Gregorio Vii/Staz. S. Pietro","5 M. PRIMA VIA DEL COTTOLENGO  CORSIA CENTRALE",41.897854,12.450562,"http://muovi.roma.it/percorso/js?query=&cl=1",Europe/Rome,,
ROME250,70162,"Gregorio Vii/Ranucci","35 M. DOPO SBOCCO VIA RANUCCI CORSIA CENTRALE",41.896194,12.449352,"http://muovi.roma.it/percorso/js?query=&cl=1",Europe/Rome,,
ROME251,70163,"Cassia/Villa S. Pietro","",41.962734,12.447775,"",,,
ROME252,70164,"Cassia/S. Godenzo","",41.960159,12.451998,"",,,
ROME253,70165,"Gregorio Vii/S. Damaso","",41.895836,12.444763,"",,,
ROME254,70166,"Cassia/S. Giovanna Elisabetta","20 M. PRIMA SBOCCO VIA S.GIOVANNA ELISABETTA PR.FR.CIV.468",41.957150,12.455944,"http://muovi.roma.it/percorso/js?query=&cl=1",Europe/Rome,,
ROME255,70167,"Gregorio Vii/Di Pietro","",41.896423,12.441512,"",,,
ROME256,70168,"Gregorio Vii/Anastasio Ii","",41.895126,12.438768,"",,,
ROME258,70170,"Giolitti","",41.897564,12.505323,"",,,
ROME261,70173,"C.so Francia/Vigna Stelluti","100 M.DOPO LARGO G.BELLONI  ALTEZZA CIVICO 247 CORS.CENTRALE",41.945992,12.469220,"http://muovi.roma.it/percorso/js?query=&cl=1",Europe/Rome,,
ROME262,70175,"C.so Francia/Bodio","30 M. DOPO VIA P. MAESTRI ALTEZZA CIVICO 195 CORSIA CENTRALE",41.943893,12.469316,"http://muovi.roma.it/percorso/js?query=&cl=1",Europe/Rome,,
ROME263,70179,"C.so Francia/Ponte Flaminio","",41.937901,12.471218,"",,,
ROME264,70180,"Viminale","",41.899803,12.494477,"",,,
ROME265,70181,"C.so Francia/Uruguay","",41.934845,12.471745,"",,,
ROME266,70183,"Rinascimento","",41.897278,12.474218,"",,,
ROME267,70184,"Senato","",41.900265,12.473913,"",,,
ROME269,70187,"Zanardelli","",41.901382,12.472187,"",,,
ROME270,70188,"Lgt Marzio","",41.903011,12.473882,"",,,
ROME271,70189,"Vittoria Colonna","",41.905186,12.471727,"",,,
ROME272,70190,"P.za Cavour","",41.905952,12.470050,"",,,
ROME273,70191,"Cicerone/Plinio","",41.908039,12.468203,"",,,
ROME278,70197,"L.go Trionfale","",41.910980,12.454850,"",,,
ROME279,70198,"Giuliana/Grazioli Lante","",41.913177,12.454318,"",,,
ROME280,70199,"Giuliana/Pretura","",41.915207,12.453833,"",,,
ROME281,70200,"Clodio","",41.917522,12.455418,"",,,
ROME282,70201,"Giuliana/Pretura","",41.915058,12.453732,"",,,
ROME283,70202,"Giuliana/Grazioli Lante","",41.912476,12.454283,"",,,
ROME284,70203,"L.go Trionfale","",41.911018,12.454673,"",,,
ROME287,70208,"Cassia/Pareto","25 M. DOPO VIA DI VILLA LAUCHLI DOPO CIVICO 262",41.950619,12.460470,"http://muovi.roma.it/percorso/js?query=&cl=1",Europe/Rome,,
ROME288,70209,"Cassia/Cortina D'ampezzo","15 M. PRIMA SBOCCO VIA CORTINA D'AMPEZZO PRIMA CIVICO 328",41.952457,12.457445,"http://muovi.roma.it/percorso/js?query=&cl=1",Europe/Rome,,
ROME289,70211,"Cassia/Oriolo Romano","30 M. PRIMA VIA CASSIA NUOVA DOPO FRONTE CIVICO 443/A",41.957207,12.457438,"http://muovi.roma.it/percorso/js?query=&cl=1",Europe/Rome,,
ROME290,70212,"Cassia/Cortina D'ampezzo","95 M. DOPO VLE CORTINA D'AMPEZZO DOPO FRONTE CIVICO 328",41.951889,12.458079,"http://muovi.roma.it/percorso/js?query=&cl=1",Europe/Rome,,
ROME291,70213,"Cassia/Pareto","25 M. DOPO SBOCCO VIA VILFREDO PARETO",41.949837,12.461377,"http://muovi.roma.it/percorso/js?query=&cl=1",Europe/Rome,,
ROME295,70219,"Argentina/Bolivia","20 M. DOPO VIA BOLIVIA",41.932556,12.476364,"http://muovi.roma.it/percorso/js?query=&cl=1",Europe/Rome,,
ROME296,70220,"Xvii Olimpiade","30 M. DOPO VIA BULGARIA PRIMA CIVICO 101 - CAPOLINEA 982-982D",41.932781,12.473724,"http://muovi.roma.it/percorso/js?query=&cl=1",Europe/Rome,,
ROME297,70221,"Xvii Olimpiade/Austria","55 M. DOPO VIA AUSTRIA PRIMA VIA PORTOGALLO",41.932487,12.471394,"http://muovi.roma.it/percorso/js?query=&cl=1",Europe/Rome,,
ROME299,70224,"De Coubertin/Auditorium","60 M. PRIMA SBOCCO VIA ARGENTINA",41.930180,12.475751,"http://muovi.roma.it/percorso/js?query=&cl=1",Europe/Rome,,
ROME300,70225,"Guidubaldo Del Monte","100 M. PRIMA VIA BRIOSCHI",41.927937,12.478769,"http://muovi.roma.it/percorso/js?query=&cl=1",Europe/Rome,,
ROME301,70226,"Staz.ne Euclide","25 M. DOPO P.ZA EUCLIDE",41.927536,12.481929,"http://muovi.roma.it/percorso/js?query=&cl=1",Europe/Rome,,
ROME302,70227,"Parioli/Acqua Acetosa","",41.929604,12.484403,"",,,
ROME303,70228,"Parioli/Stuparich","",41.929058,12.485925,"",,,
ROME304,70229,"Parioli/Santiago Del Cile","",41.926159,12.486402,"",,,
ROME305,70233,"Bioparco/Mercadante","",41.918522,12.490943,"",,,
ROME307,70235,"Tartini","",41.916359,12.495390,"",,,
ROME308,70237,"Salaria/Aniene","",41.911854,12.497858,"",,,
ROME309,70238,"Piave/Xx Settembre","",41.907711,12.498688,"",,,
ROME310,70239,"Indipendenza","",41.904709,12.501943,"",,,
ROME311,70240,"Termini","",41.901001,12.499733,"",,,
ROME312,70243,"S. Maria Maggiore","",41.896969,12.498203,"",,,
ROME313,70245,"P.za Vittorio Emanuele","",41.894073,12.503522,"",,,
ROME314,70246,"Conte Verde/P.za Vittorio Emanuele","",41.893444,12.506180,"",,,
ROME315,70247,"Via S. Croce In Gerusalemme/Manzoni","",41.891754,12.509217,"",,,
ROME316,70248,"Via S. Croce In Gerusalemme/Statilia","",41.890076,12.512252,"",,,
ROME317,70249,"Via S. Croce In Gerusalemme","",41.888878,12.514327,"",,,
ROME318,70252,"La Spezia/Lodi","",41.887093,12.520778,"",,,
ROME319,70253,"Alghero","",41.886349,12.521517,"",,,
ROME320,70254,"Villa Fiorelli","",41.884224,12.522455,"",,,
ROME322,70256,"Lepanto","",41.911846,12.465752,"",,,
ROME324,70258,"Cicerone/Plinio","",41.907558,12.468350,"",,,
ROME325,70259,"Cicerone/Cavour","",41.906097,12.469172,"",,,
ROME326,70261,"Vittoria Colonna","",41.905022,12.472313,"",,,
ROME327,70262,"Ripetta","",41.904053,12.475233,"",,,
ROME328,70263,"Monte Brianzo","",41.902805,12.474048,"",,,
ROME330,70266,"Rinascimento","",41.898003,12.473928,"",,,
ROME332,70268,"Esquilino/Cavour","",41.898422,12.496635,"",,,
ROME333,70269,"Rattazzi/Giolitti","",41.898071,12.503713,"",,,
ROME334,70270,"Rattazzi/Napoleone Iii","",41.896347,12.501985,"",,,
ROME335,70273,"De Lollis/Irpini","",41.900986,12.515715,"",,,
ROME337,70275,"Tiburtina/Marrucini","",41.898220,12.513933,"",,,
ROME339,70277,"Marsala","",41.898895,12.507992,"",,,
ROME340,70278,"Cavour/Esquilino","",41.897987,12.496670,"",,,
ROME341,70279,"Panisperna","",41.897171,12.494590,"",,,
ROME342,70280,"Milano","",41.897099,12.492510,"",,,
ROME343,70281,"Milano/Nazionale","",41.898502,12.490825,"",,,
ROME344,70282,"Tritone/Fontana Trevi","",41.902756,12.485220,"",,,
ROME9448,70284,"Tritone/Fontana Di Trevi","",41.902420,12.484100,"",,,
ROME345,70285,"Traforo/Tritone","",41.902199,12.486193,"",,,
ROME346,70286,"Milano/Nazionale","",41.899181,12.489742,"",,,
ROME348,70289,"Troiani/Decima","80 M. DOPO VIA DI DECIMA",41.812969,12.451795,"http://muovi.roma.it/percorso/js?query=&cl=1",Europe/Rome,,
ROME349,70290,"Troiani/Costellazioni","50 M. PRIMA VIA DELLE COSTELLAZIONI",41.812439,12.450555,"http://muovi.roma.it/percorso/js?query=&cl=1",Europe/Rome,,
ROME351,70292,"Tiburtina/Marrucini","",41.898907,12.515503,"",,,
ROME352,70293,"Tiburtina/Reti","",41.899578,12.516828,"",,,
ROME353,70294,"Indipendenza","",41.904179,12.502850,"",,,
ROME356,70299,"Dandolo/Glorioso","",41.884274,12.468070,"",,,
ROME357,70300,"Dandolo","",41.885254,12.466518,"",,,
ROME358,70301,"Fabrizi","",41.886242,12.464792,"",,,
ROME359,70302,"Calandrelli","",41.885021,12.463020,"",,,
ROME361,70304,"Carini/Pilo","",41.882309,12.460712,"",,,
ROME362,70305,"Barrili","",41.879829,12.460583,"",,,
ROME363,70307,"Poerio","",41.876095,12.461120,"",,,
ROME364,70308,"Poerio/F.lli Bandiera","",41.880650,12.463350,"",,,
ROME365,70309,"Poerio/Dall'ongaro","",41.878136,12.463145,"",,,
ROME366,70310,"Quadrio","",41.881886,12.461278,"",,,
ROME367,70311,"Bonnet/Carini","",41.885040,12.461368,"",,,
ROME368,70312,"Dandolo/Fabrizi","",41.886196,12.465642,"",,,
ROME369,70313,"Dandolo/Casini","",41.883480,12.466455,"",,,
ROME370,70319,"Grande Muraglia/Oceano Pacifico","",41.823700,12.455927,"",,,
ROME371,70320,"Grande Muraglia/Rotterdam","",41.820534,12.454173,"",,,
ROME372,70322,"Grande Muraglia/Siviglia","",41.819050,12.451475,"",,,
ROME373,70323,"Gattamelata/Cane","",41.888298,12.536688,"",,,
ROME374,70324,"Gattamelata/Di Bastelica","",41.890053,12.536637,"",,,
ROME375,70327,"Grande Muraglia/Decima","",41.816727,12.447512,"",,,
ROME376,70328,"P.le Prenestino","",41.891369,12.527625,"",,,
ROME377,70329,"Aquila","",41.890652,12.525418,"",,,
ROME378,70330,"Ponte Casilino","",41.889267,12.523013,"",,,
ROME379,70331,"La Spezia/Lodi","",41.887066,12.519813,"",,,
ROME380,70335,"Porta S. Giovanni","",41.886333,12.509017,"",,,
ROME381,70340,"Colosseo","",41.891262,12.491467,"",,,
ROME382,70341,"Fori Imperiali","",41.893661,12.486492,"",,,
ROME383,70342,"Fori Imperiali/Campidoglio","",41.894993,12.484187,"",,,
ROME384,70344,"Lgt Marzio/Porto Di Ripetta","",41.904259,12.474908,"",,,
ROME385,70347,"P.za Cola Di Rienzo","",41.908455,12.467085,"",,,
ROME386,70348,"Cola Di Rienzo/Regolo","",41.907871,12.464628,"",,,
ROME387,70349,"Cola Di Rienzo/Terenzio","",41.907318,12.462363,"",,,
ROME388,70350,"Cola Di Rienzo/Catone","",41.906582,12.459473,"",,,
ROME389,70351,"Risorgimento","",41.906185,12.458382,"",,,
ROME390,70352,"Cola Di Rienzo/Catone","",41.906487,12.459553,"",,,
ROME391,70353,"Cola Di Rienzo/Terenzio","",41.907410,12.463490,"",,,
ROME392,70354,"Cola Di Rienzo/Tacito","",41.908188,12.466540,"",,,
ROME393,70357,"Maria Adelaide","",41.909809,12.474352,"",,,
ROME394,70358,"Passeggiata Ripetta","",41.908840,12.474267,"",,,
ROME395,70359,"Augusto Imperatore","",41.905315,12.477305,"",,,
ROME396,70360,"Tomacelli","",41.904598,12.477745,"",,,
ROME397,70361,"Corso/L.go Chigi","",41.901829,12.479970,"",,,
ROME398,70362,"Grande Muraglia/Pianeta Saturno","",41.814953,12.444633,"",,,
ROME399,70364,"Cavour/Ricci","",41.893642,12.488975,"",,,
ROME400,70365,"Fori Imperiali","",41.893326,12.486885,"",,,
ROME401,70366,"Grande Muraglia/Pianeta Saturno","",41.814751,12.444737,"",,,
ROME402,70367,"Labicana/Colosseo","",41.890240,12.495133,"",,,
ROME403,70369,"Labicana/Merulana","",41.889107,12.502853,"",,,
ROME404,70370,"Grande Muraglia/Decima","",41.816574,12.447663,"",,,
ROME405,70371,"Porta S. Giovanni","",41.886692,12.508513,"",,,
ROME406,70372,"Appia/San Giovanni","",41.884987,12.510217,"",,,
ROME407,70374,"Ponte Casilino","",41.888428,12.522567,"",,,
ROME409,70376,"Grande Muraglia/Siviglia","",41.818726,12.451360,"",,,
ROME410,70377,"Grande Muraglia/Rotterdam","",41.820438,12.454542,"",,,
ROME411,70378,"Prenestina/Giovenale","",41.891861,12.531582,"",,,
ROME412,70379,"Prenestina/Giussano","",41.892174,12.534665,"",,,
ROME413,70382,"Dal Verme/Gattamelata","",41.888603,12.537167,"",,,
ROME414,70383,"Dal Verme/Degli Ubertini","",41.888596,12.539628,"",,,
ROME415,70386,"Grande Muraglia/Oceano Pacifico","",41.823784,12.456308,"",,,
ROME416,70387,"P.za Venezia","",41.895992,12.482045,"",,,
ROME417,70388,"Ardeatina/Cecchignola","",41.822159,12.519507,"",,,
ROME418,70389,"S. Giovanni In Laterano/S. Clemente","",41.888702,12.498460,"",,,
ROME419,70390,"S. Giovanni In Laterano","",41.888130,12.500365,"",,,
ROME420,70391,"Pza S. Giovanni In Laterano","",41.887016,12.504407,"",,,
ROME421,70392,"Porta S. Giovanni","",41.886406,12.507863,"",,,
ROME422,70393,"Taranto/Pontremoli","",41.884983,12.512588,"",,,
ROME423,70394,"Taranto/Aosta","",41.884335,12.515435,"",,,
ROME424,70395,"Taranto/Casalmaggiore","",41.883808,12.517732,"",,,
ROME425,70396,"Taranto/Lugo","",41.882885,12.521023,"",,,
ROME426,70397,"Ragusa","",41.881763,12.522268,"",,,
ROME427,70398,"Monselice/Stazione Tuscolana","35 M. DOPO VIA MESTRE",41.879940,12.522428,"http://muovi.roma.it/percorso/js?query=&cl=1",Europe/Rome,,
ROME428,70399,"Tuscolana/Gela","",41.879101,12.522118,"",,,
ROME429,70400,"Tuscolana/Amelia","",41.877457,12.524662,"",,,
ROME430,70401,"Tuscolana/Clelia","",41.874969,12.528203,"",,,
ROME431,70402,"S. M. Ausiliatrice","",41.873787,12.529877,"",,,
ROME432,70403,"Volumnia","",41.872211,12.532837,"",,,
ROME433,70404,"Albano","",41.869995,12.532545,"",,,
ROME434,70405,"Ardeatina/Cecchignola","",41.822945,12.519105,"",,,
ROME435,70406,"Numitore","",41.872070,12.529738,"",,,
ROME436,70407,"S. M. Ausiliatrice","",41.873562,12.530892,"",,,
ROME437,70408,"Tuscolana/Clelia","",41.875824,12.527355,"",,,
ROME438,70409,"Tuscolana/Amelia","30 M. DOPO VIA AMELIA",41.877625,12.524683,"http://muovi.roma.it/percorso/js?query=&cl=1",Europe/Rome,,
ROME439,70410,"Tuscolana/Assisi","45 M. DOPO VIA ASSISI",41.878410,12.523574,"http://muovi.roma.it/percorso/js?query=&cl=1",Europe/Rome,,
ROME440,70411,"Monselice/Stazione Tuscolana","80 M. DOPO VIA TUSCOLANA",41.879974,12.522752,"http://muovi.roma.it/percorso/js?query=&cl=1",Europe/Rome,,
ROME441,70412,"ADRIA","",41.877602,12.520060,"",,,
ROME442,70413,"GELA","",41.878159,12.519775,"",,,
ROME443,70414,"Ragusa","",41.881851,12.522918,"",,,
ROME444,70415,"Olevano Romano","",41.892170,12.555273,"",,,
ROME445,70416,"Taranto/Casalmaggiore","",41.884136,12.516775,"",,,
ROME446,70417,"Ragusa","35 M. DOPO VIA MIRANDOLA",41.881653,12.523198,"http://muovi.roma.it/percorso/js?query=&cl=1",Europe/Rome,,
ROME447,70418,"Taranto/Monza","",41.884636,12.514652,"",,,
ROME448,70419,"Villa Fiorelli","",41.884109,12.522795,"",,,
ROME449,70420,"Rimini","",41.884506,12.512205,"",,,
ROME450,70421,"Alghero","",41.886524,12.521615,"",,,
ROME451,70422,"Appia/San Giovanni","",41.885094,12.510363,"",,,
ROME453,70424,"P.za S. Giovanni In Laterano","",41.887276,12.505068,"",,,
ROME454,70425,"Monza/La Spezia","",41.885929,12.515558,"",,,
ROME455,70426,"Via S. Croce In Gerusalemme/Statilia","",41.890774,12.511302,"",,,
ROME456,70427,"Conte Verde/Manzoni","",41.892399,12.508362,"",,,
ROME457,70428,"Conte Verde/P.za Vittorio Emanuele","",41.893505,12.506353,"",,,
ROME458,70431,"P.za Vittorio Emanuele","",41.895912,12.502035,"",,,
ROME459,70432,"Carlo Alberto","",41.896935,12.500082,"",,,
ROME460,70433,"Gioberti","",41.899502,12.501372,"",,,
ROME461,70436,"Mazzolari/Follereau","60 M. DOPO SBOCCO VIA R.FOLLEREAU",41.892300,12.678013,"http://muovi.roma.it/percorso/js?query=&cl=1",Europe/Rome,,
ROME462,70437,"Crivellucci","",41.868328,12.525780,"",,,
ROME463,70438,"Fortifiocca/Denina","",41.870743,12.522693,"",,,
ROME464,70439,"Termini","",41.901524,12.499110,"",,,
ROME465,70441,"Volturno/Gaeta","",41.904034,12.500362,"",,,
ROME466,70443,"Volturno/Cernaia","",41.905174,12.498918,"",,,
ROME467,70444,"Baccarini/Papi","",41.873531,12.517220,"",,,
ROME468,70445,"Goito/Xx Settembre","",41.907055,12.499232,"",,,
ROME469,70446,"FIUME","",41.910892,12.498208,"",,,
ROME470,70447,"Baccarini/C.ne Appia","",41.875610,12.516735,"",,,
ROME471,70448,"Don Orione","",41.878510,12.515133,"",,,
ROME472,70450,"Albalonga","",41.879414,12.513195,"",,,
ROME473,70451,"Ceneda","",41.880676,12.510935,"",,,
ROME474,70453,"Magna Grecia/Tuscolo","30 M. DOPO P.ZA TUSCOLO",41.881008,12.508220,"http://muovi.roma.it/percorso/js?query=&cl=1",Europe/Rome,,
ROME475,70454,"Paisiello/Monteverdi","",41.917835,12.493565,"",,,
ROME476,70455,"Faleria","50 M. DOPO VIA ARDEA",41.883286,12.510814,"http://muovi.roma.it/percorso/js?query=&cl=1",Europe/Rome,,
ROME477,70456,"Paisiello/Bellini","",41.919781,12.492665,"",,,
ROME478,70457,"Bertoloni","",41.921246,12.491453,"",,,
ROME479,70458,"Parioli/Ungheria","",41.923531,12.491255,"",,,
ROME480,70459,"Parioli/Oxilia","",41.925117,12.489598,"",,,
ROME481,70460,"Santiago Del Cile","",41.925781,12.487337,"",,,
ROME482,70461,"Parioli/Stuparich","",41.929008,12.486063,"",,,
ROME483,70462,"Parco Rimembranza","FRONTE CIVICO 120",41.928429,12.480025,"http://muovi.roma.it/percorso/js?query=&cl=1",Europe/Rome,,
ROME484,70464,"De Coubertin","25 M. DOPO SBOCCO VIA P.DE COUBERTIN",41.930763,12.476578,"http://muovi.roma.it/percorso/js?query=&cl=1",Europe/Rome,,
ROME485,70465,"Salvini","",41.929363,12.493033,"",,,
ROME486,70466,"MUSE","",41.930332,12.490293,"",,,
ROME487,70467,"Digione","",41.927593,12.491093,"",,,
ROME488,70468,"Villa S. Filippo","",41.927036,12.492720,"",,,
ROME489,70470,"Romania","",41.924545,12.492837,"",,,
ROME490,70471,"Ungheria","",41.923233,12.492417,"",,,
ROME491,70472,"Guido D'arezzo","",41.920841,12.493183,"",,,
ROME492,70473,"Bellini","",41.920246,12.494978,"",,,
ROME493,70474,"Zanardelli","",41.901001,12.472227,"",,,
ROME494,70475,"Cimarosa","",41.919537,12.496690,"",,,
ROME495,70478,"Salaria/Adda","",41.914520,12.497242,"",,,
ROME496,70479,"Colosseo","",41.891064,12.491602,"",,,
ROME497,70480,"Merulana/S. Giovanni","",41.888054,12.504057,"",,,
ROME498,70481,"Magna Grecia/San Giovanni","",41.884411,12.509230,"",,,
ROME499,70482,"Magna Grecia/Tuscolo","25 M. DOPO VIA CLATERNA",41.881207,12.508098,"http://muovi.roma.it/percorso/js?query=&cl=1",Europe/Rome,,
ROME500,70483,"Etruria/Tuscolo","",41.879780,12.509227,"",,,
ROME501,70484,"Etruria/Albalonga","",41.879139,12.511898,"",,,
ROME502,70485,"Emanuele Filiberto/Dante","",41.892471,12.505545,"",,,
ROME503,70486,"L.go Don Orione","",41.878201,12.515805,"",,,
ROME9328,70487,"Manzoni","",41.889713,12.506950,"",,,
ROME504,70488,"Baccarini/C.ne Appia","",41.875851,12.516523,"",,,
ROME505,70489,"Mazzolari/Follereau","45 M. PRIMA VIA R.FOLLEREAU",41.892326,12.677696,"http://muovi.roma.it/percorso/js?query=&cl=1",Europe/Rome,,
ROME506,70490,"Epiro","60 M. DOPO P.ZA EPIRO ALTEZZA CIVICO 35",41.877720,12.504846,"http://muovi.roma.it/percorso/js?query=&cl=1",Europe/Rome,,
ROME507,70491,"Latina","",41.875591,12.504248,"",,,
ROME508,70492,"ACAIA","",41.874870,12.507212,"",,,
ROME509,70494,"ZAMA","",41.876343,12.509993,"",,,
ROME510,70495,"Baccarini/Papi","",41.873650,12.517013,"",,,
ROME511,70497,"Baronio","50 M. DOPO VIA L.CIBRARIO ALTEZZA CIVICO 109",41.872002,12.519419,"http://muovi.roma.it/percorso/js?query=&cl=1",Europe/Rome,,
ROME512,70500,"Epiro","25 M.DOPO P.ZA EPIRO PRIMA CIVICO 53",41.878517,12.505712,"http://muovi.roma.it/percorso/js?query=&cl=1",Europe/Rome,,
ROME513,70501,"Saturnia","25 M. PRIMA DI VIA GALLIA PRIMA CIVICO 13",41.880276,12.506395,"http://muovi.roma.it/percorso/js?query=&cl=1",Europe/Rome,,
ROME514,70503,"Fortifiocca/Baronio","40 M. DOPO P.ZA C.BARONIO",41.872334,12.520739,"http://muovi.roma.it/percorso/js?query=&cl=1",Europe/Rome,,
ROME515,70504,"Fortifiocca/Denina","",41.870319,12.522862,"",,,
ROME516,70505,"De Sanctis","",41.868958,12.524650,"",,,
ROME517,70506,"Manzoni","",41.890846,12.506512,"",,,
ROME518,70507,"Emanuele Filiberto/Dante","",41.892773,12.505598,"",,,
ROME519,70508,"Lenormant/Zelia Nuttal","",41.773857,12.332577,"",,,
ROME520,70509,"ZAMA","",41.876125,12.510183,"",,,
ROME521,70510,"Satrico/Collazia","20 M. DOPO SBOCCO VIA GALAZIA ALTEZZA CIV.31",41.877232,12.507314,"http://muovi.roma.it/percorso/js?query=&cl=1",Europe/Rome,,
ROME522,70511,"Epiro","2 M. PRIMA FRONTE CIVICO 18",41.878857,12.504040,"http://muovi.roma.it/percorso/js?query=&cl=1",Europe/Rome,,
ROME523,70512,"Pannonia/De Mattias","",41.880215,12.501160,"",,,
ROME524,70513,"Pannonia/Tracia","",41.881477,12.499858,"",,,
ROME525,70514,"Terme Caracalla/Valle Camene","",41.881004,12.494872,"",,,
ROME526,70515,"Terme Caracalla/Porta Capena","",41.883579,12.490418,"",,,
ROME527,70516,"Lenormant/Zelia Nuttal","",41.773991,12.332548,"",,,
ROME528,70517,"Cerchi/Bocca Della Verita'","",41.888577,12.482680,"",,,
ROME529,70518,"Petroselli","",41.890152,12.480963,"",,,
ROME530,70520,"Prenestina/Conti","",41.892284,12.540177,"",,,
ROME531,70522,"Azuni/Min. Marina","",41.914703,12.472277,"",,,
ROME532,70523,"Settembrini/Martiri Belfiore","",41.914799,12.467787,"",,,
ROME533,70524,"Settembrini/Mazzini","",41.915646,12.464730,"",,,
ROME534,70525,"Oslavia/Mazzini","",41.916725,12.463127,"",,,
ROME535,70530,"Lgt Vittoria/Maresciallo Giardino","",41.923252,12.460767,"",,,
ROME536,70531,"Lgt Vittoria/Timavo","",41.921894,12.463348,"",,,
ROME537,70533,"CARSO","",41.920002,12.462868,"",,,
ROME538,70535,"Oslavia/Mazzini","",41.916603,12.462932,"",,,
ROME539,70539,"Augusto Imperatore/Ara Pacis","",41.906418,12.476653,"",,,
ROME540,70540,"Teatro Marcello/Ara Coeli","",41.893112,12.481160,"",,,
ROME541,70543,"Petroselli","",41.890251,12.480707,"",,,
ROME542,70544,"Liegi/Bellini","",41.920567,12.497023,"",,,
ROME543,70545,"GRECA","",41.887524,12.481590,"",,,
ROME544,70546,"Liegi/Ungheria","",41.921764,12.494360,"",,,
ROME545,70547,"Circo Massimo/Roseto Comunale","",41.884953,12.485345,"",,,
ROME546,70548,"Romania","",41.925194,12.493302,"",,,
ROME547,70549,"Circo Massimo","",41.884064,12.486917,"",,,
ROME548,70550,"Salvini/Bligny","",41.927235,12.493413,"",,,
ROME549,70552,"Campo Farnia/Civ. 166","ALTEZZA PIAZZALE PER INVERSIONE DI MARCIA FRONTE CIVICO 160",41.830246,12.577518,"http://muovi.roma.it/percorso/js?query=&cl=1",Europe/Rome,,
ROME550,70554,"Terme Caracalla/Porta Capena","",41.882923,12.491128,"",,,
ROME551,70555,"Porta Metronia","",41.882076,12.498520,"",,,
ROME552,70556,"Albalonga/Re Di Roma","",41.880886,12.513813,"",,,
ROME553,70557,"Aosta/Re Di Roma","",41.882671,12.514510,"",,,
ROME554,70558,"Pannonia/Tracia","",41.880718,12.500398,"",,,
ROME555,70559,"De Mattias/Pannonia","",41.879448,12.501943,"",,,
ROME556,70560,"Monza/Taranto","",41.884777,12.515302,"",,,
ROME557,70561,"Satrico/Epiro","25 M. DOPO VIA LUSITANIA",41.877865,12.505448,"http://muovi.roma.it/percorso/js?query=&cl=1",Europe/Rome,,
ROME558,70562,"Satrico/Zama","55 M.DOPO VIA ACAIA PRIMA VIA CAULONIA",41.876446,12.508713,"http://muovi.roma.it/percorso/js?query=&cl=1",Europe/Rome,,
ROME559,70563,"Campo Farnia/Civ. 100","10 M. DOPO FRONTE CIVICO 100",41.831951,12.575870,"http://muovi.roma.it/percorso/js?query=&cl=1",Europe/Rome,,
ROME560,70565,"Campo Farnia/Pellaro","",41.833378,12.575330,"",,,
ROME562,70567,"S. M. Battaglia","",41.905384,12.504345,"",,,
ROME563,70568,"Universita'/Min. Aeronautica","",41.902798,12.507747,"",,,
ROME564,70569,"Policlinico/V.le Universita'","",41.904613,12.510653,"",,,
ROME565,70570,"Policlinico","",41.906406,12.509523,"",,,
ROME566,70574,"Terme Caracalla/Valle Camene","",41.880692,12.494615,"",,,
ROME567,70575,"Provincie","",41.908707,12.521080,"",,,
ROME568,70577,"Provincie/Valerio Massimo","",41.906937,12.521303,"",,,
ROME569,70579,"Tiburtina/Valerio Massimo","",41.906151,12.522788,"",,,
ROME570,70581,"Tiburtina/Crociate","",41.907883,12.525712,"",,,
ROME571,70582,"Licia","20 M. DOPO VIA TAURASIA",41.879501,12.503152,"http://muovi.roma.it/percorso/js?query=&cl=1",Europe/Rome,,
ROME572,70583,"Macedonia/Latina","35 M. DOPO VIA LATINA",41.873425,12.511848,"http://muovi.roma.it/percorso/js?query=&cl=1",Europe/Rome,,
ROME573,70584,"Gregorovius","20 M. DOPO VIA MACEDONIA",41.871754,12.513246,"http://muovi.roma.it/percorso/js?query=&cl=1",Europe/Rome,,
ROME574,70585,"Tommaso Da Celano/Gregorovius","25 M. DOPO VIA GREGOROVIUS",41.872044,12.514832,"http://muovi.roma.it/percorso/js?query=&cl=1",Europe/Rome,,
ROME575,70586,"Tommaso Da Celano/Diacono","25 M. PRIMA P.ZA DIACONO",41.870346,12.515868,"http://muovi.roma.it/percorso/js?query=&cl=1",Europe/Rome,,
ROME576,70587,"Caffarelletta","70 M. DOPO VIA NISCO",41.869274,12.518519,"http://muovi.roma.it/percorso/js?query=&cl=1",Europe/Rome,,
ROME577,70588,"Villani","35 M. DOPO L.GO DELLA CAFFARELLETTA",41.870281,12.517922,"http://muovi.roma.it/percorso/js?query=&cl=1",Europe/Rome,,
ROME578,70589,"Platina","40 M. DOPO VIA VILLANI",41.869408,12.516900,"http://muovi.roma.it/percorso/js?query=&cl=1",Europe/Rome,,
ROME579,70590,"Coppi A.","55 M. DOPO VIA TOMMASO DA CELANO",41.870033,12.515401,"http://muovi.roma.it/percorso/js?query=&cl=1",Europe/Rome,,
ROME580,70591,"Macedonia","30 M. DOPO VIA COPPI",41.870174,12.513704,"http://muovi.roma.it/percorso/js?query=&cl=1",Europe/Rome,,
ROME581,70592,"Macedonia/Gregorovius","20 M. DOPO VIA GREGOROVIUS",41.871925,12.512802,"http://muovi.roma.it/percorso/js?query=&cl=1",Europe/Rome,,
ROME582,70593,"Numanzia/Latina","20 M. DOPO VIA LATINA",41.873886,12.511830,"http://muovi.roma.it/percorso/js?query=&cl=1",Europe/Rome,,
ROME583,70594,"Satrico/Zama","25 M. DOPO P.ZA ZAMA",41.876385,12.509169,"http://muovi.roma.it/percorso/js?query=&cl=1",Europe/Rome,,
ROME584,70598,"L.go Amba Aradam","",41.882618,12.498535,"",,,
ROME585,70599,"Corso/Ss. Apostoli","",41.897743,12.481840,"",,,
ROME586,70600,"L.go Chigi","",41.901653,12.481057,"",,,
ROME587,70601,"Tritone/Barberini","",41.903271,12.487680,"",,,
ROME588,70602,"Ratto Delle Sabine","90 M. DOPO VIA CASTELCHIODATO",41.945969,12.600986,"http://muovi.roma.it/percorso/js?query=&cl=1",Europe/Rome,,
ROME589,70603,"Veneto/Emilia","",41.906101,12.489870,"",,,
ROME590,70604,"Veneto/Sardegna","",41.908543,12.489098,"",,,
ROME591,70610,"Teatro Marcello","",41.893101,12.481387,"",,,
ROME592,70611,"Bocca Della Verita'","",41.888771,12.481302,"",,,
ROME593,70612,"Emporio","",41.882656,12.476477,"",,,
ROME594,70613,"Branca","",41.880234,12.474633,"",,,
ROME595,70615,"Zabaglia/Galvani","",41.876934,12.476117,"",,,
ROME596,70618,"Matteucci/Bove","",41.871964,12.481953,"",,,
ROME597,70619,"Benzoni/Pigafetta","",41.870518,12.484507,"",,,
ROME598,70622,"P.za Romano B.","",41.862278,12.485048,"",,,
ROME599,70623,"L.go Sette Chiese/Circ.ne Xi","",41.860203,12.487277,"",,,
ROME600,70624,"Macinghi Strozzi","",41.859409,12.489583,"",,,
ROME601,70625,"Bono Cairoli","",41.858150,12.489270,"",,,
ROME602,70626,"Zoagli Mameli","",41.856613,12.488025,"",,,
ROME603,70630,"Zoagli/Mameli","",41.856049,12.488467,"",,,
ROME604,70631,"Staz. Acqua Acetosa","",41.932903,12.488480,"",,,
ROME605,70632,"S. Nemesio/Cto","",41.858627,12.488870,"",,,
ROME606,70635,"P.za Romano B.","",41.863277,12.485488,"",,,
ROME607,70637,"C.ne Ostiense/Caffaro","",41.867367,12.485122,"",,,
ROME608,70638,"Benzoni/Pigafetta","",41.869701,12.484558,"",,,
ROME609,70639,"Matteucci/Bove","",41.871929,12.482878,"",,,
ROME610,70642,"Zabaglia","",41.876537,12.476683,"",,,
ROME611,70643,"Rubattino","",41.880154,12.473928,"",,,
ROME612,70644,"Campi Sportivi","",41.933060,12.489042,"",,,
ROME613,70645,"Emporio","",41.882984,12.476458,"",,,
ROME614,70646,"Bocca Della Verita'","",41.888508,12.481545,"",,,
ROME615,70647,"Nervi/Palazzo Sport","",41.823887,12.466133,"",,,
ROME616,70649,"Arte/Aeronautica","60 M. DOPO VLE AFRICA ALTEZZA CIVICO 87",41.826042,12.472696,"http://muovi.roma.it/percorso/js?query=&cl=1",Europe/Rome,,
ROME617,70650,"Europa/Arte","50 M. DOPO V.LE DELL'ARTE ALTEZZA CIVICO 331",41.829636,12.473444,"http://muovi.roma.it/percorso/js?query=&cl=1",Europe/Rome,,
ROME618,70651,"Europa/Tolstoi","50 M. DOPO VIA C.COLOMBO ALTEZZA CIVICO 183",41.831154,12.468293,"http://muovi.roma.it/percorso/js?query=&cl=1",Europe/Rome,,
ROME619,70652,"Beethoven/Europa","55 M. DOPO VLE EUROPA ALTEZZA CIVICO 51",41.832233,12.466413,"http://muovi.roma.it/percorso/js?query=&cl=1",Europe/Rome,,
ROME620,70653,"Beethoven/Don Sturzo","30 M. DOPO PLE ASIA FRONTE CIVICO 20",41.833668,12.467159,"http://muovi.roma.it/percorso/js?query=&cl=1",Europe/Rome,,
ROME621,70654,"Beethoven/Civilta' Del Lavoro","30 M. DOPO VIA CHOPIN ALTEZZA B.N.A",41.835274,12.468058,"http://muovi.roma.it/percorso/js?query=&cl=1",Europe/Rome,,
ROME622,70656,"Colombo/Agricoltura","",41.835468,12.472238,"",,,
ROME623,70658,"Colombo/Laurentina","",41.846275,12.479648,"",,,
ROME624,70659,"Colombo/Vedana","",41.847672,12.481637,"",,,
ROME625,70660,"Colombo/Fontanellato","",41.848953,12.483403,"",,,
ROME626,70661,"Colombo/Grotta Perfetta","",41.850292,12.485288,"",,,
ROME627,70662,"Colombo/Leonori","",41.851261,12.486653,"",,,
ROME628,70663,"Colombo/Accademia Agiati","",41.852818,12.488862,"",,,
ROME629,70664,"Colombo/Georgofili","",41.854702,12.491558,"",,,
ROME630,70665,"Colombo/Guarnieri Carducci","",41.856258,12.493743,"",,,
ROME631,70666,"Colombo/Rufino","",41.858700,12.497227,"",,,
ROME632,70667,"Navigatori","",41.860840,12.498633,"",,,
ROME633,70668,"Colombo/Padre Semeria","",41.864265,12.497622,"",,,
ROME634,70669,"Patrasso","",41.782810,12.346640,"",,,
ROME635,70670,"Colombo/C.ne Ostiense","",41.867687,12.496640,"",,,
ROME636,70671,"Terme Caracalla/Porta Ardeatina","",41.873764,12.496802,"",,,
ROME638,70673,"L.go Amba Aradam","",41.883087,12.499492,"",,,
ROME639,70674,"Amba Aradam/Villa Fonseca","",41.884373,12.501330,"",,,
ROME640,70675,"Madre C. Gabriel","",41.780788,12.345772,"",,,
ROME641,70676,"Merulana/Labicana","",41.890533,12.502850,"",,,
ROME642,70677,"Merulana/Brancaccio","",41.893906,12.500955,"",,,
ROME643,70678,"S. Maria Maggiore","",41.896549,12.499440,"",,,
ROME644,70680,"Merulana/Brancaccio","",41.894627,12.500388,"",,,
ROME645,70681,"Merulana/Mecenate","",41.893097,12.501218,"",,,
ROME646,70682,"Merulana/Labicana","",41.889893,12.503038,"",,,
ROME647,70683,"P.za S. Giovanni In Laterano","",41.886444,12.503890,"",,,
ROME648,70684,"Terme Caracalla","",41.878826,12.495147,"",,,
ROME649,70685,"Colombo/Marco Polo","",41.872475,12.496242,"",,,
ROME650,70687,"Madre C. Gabriel","",41.780750,12.347173,"",,,
ROME651,70693,"Colombo/Bavastro","",41.868629,12.495930,"",,,
ROME652,70694,"Newton/Castellina Marittima","40 M. DOPO VIA CASTELLINA MARITTIMA",41.852024,12.441163,"http://muovi.roma.it/percorso/js?query=&cl=1",Europe/Rome,,
ROME653,70695,"Colombo/C.ne Ostiense","",41.866501,12.496353,"",,,
ROME654,70696,"Colombo/Padre Semeria","",41.863087,12.497355,"",,,
ROME655,70697,"Universita'/Min. Aeronautica","",41.903942,12.510103,"",,,
ROME656,70698,"Navigatori","",41.860020,12.497842,"",,,
ROME657,70699,"Castro Pretorio/Monzambano","",41.903549,12.507120,"",,,
ROME658,70700,"Colombo/Rufino","",41.858452,12.495845,"",,,
ROME659,70701,"Colombo/Guarnieri Carducci","",41.855427,12.491677,"",,,
ROME660,70702,"S. M. Battaglia","",41.905781,12.504800,"",,,
ROME661,70703,"Colombo/Georgofili","",41.854156,12.489892,"",,,
ROME662,70704,"Indipendenza","",41.904427,12.502588,"",,,
ROME663,70705,"Colombo/Accademia Agiati","",41.852283,12.487312,"",,,
ROME664,70706,"Colombo/Leonori","",41.850826,12.485340,"",,,
ROME665,70709,"Colombo/Grotta Perfetta","",41.849735,12.483767,"",,,
ROME666,70710,"Colombo/Laurentina","",41.846893,12.479727,"",,,
ROME668,70713,"Monza/La Spezia","",41.885517,12.515263,"",,,
ROME669,70714,"AOSTA","",41.884220,12.514840,"",,,
ROME670,70715,"Colombo/Agricoltura","",41.836330,12.471935,"",,,
ROME671,70716,"Aosta/Re Di Roma","",41.882671,12.514330,"",,,
ROME672,70717,"Millevoi/Ardeatina","120 M. DOPO VIA ARDEATINA",41.816971,12.520961,"http://muovi.roma.it/percorso/js?query=&cl=1",Europe/Rome,,
ROME673,70718,"Beethoven/Civilta' Del Lavoro","30 M. DOPO VLE CIVILTA'DEL LAVORO PRIMA FRONTE B.N.A.",41.835487,12.468039,"http://muovi.roma.it/percorso/js?query=&cl=1",Europe/Rome,,
ROME674,70720,"Beethoven/Don Sturzo","30 M. DOPO PLE L.STURZO ALTEZZA CIVICO 16",41.833763,12.467061,"http://muovi.roma.it/percorso/js?query=&cl=1",Europe/Rome,,
ROME675,70722,"Millevoi/Torre Faro","15 M. DOPO TORRE-FARO I PIAZ.LE SOSTA-300 M.DA VIA ARDEATINA",41.817509,12.518482,"http://muovi.roma.it/percorso/js?query=&cl=1",Europe/Rome,,
ROME676,70723,"Millevoi/Civico 425","ALTEZZA CIVICO 425",41.820000,12.516954,"http://muovi.roma.it/percorso/js?query=&cl=1",Europe/Rome,,
ROME678,70725,"Solario","",41.838032,12.489078,"",,,
ROME679,70726,"Ballarin/Maroso","",41.839554,12.492175,"",,,
ROME680,70727,"Arte/America","70 M. DOPO VLE EUROPA PRIMA CIVICO 66",41.828545,12.473804,"http://muovi.roma.it/percorso/js?query=&cl=1",Europe/Rome,,
ROME681,70728,"Arte/Aeronautica","90 M. DOPO SBOCCO VLE DELL'AEREONAUTICA FRONTE CIVICO 87",41.825840,12.472392,"http://muovi.roma.it/percorso/js?query=&cl=1",Europe/Rome,,
ROME682,70729,"Tiburtina/Valerio Massimo","",41.905880,12.522338,"",,,
ROME683,70730,"Nairobi/S. Eugenio","50 M. PRIMA V.LE DELL'UMANESIMO",41.822937,12.472145,"http://muovi.roma.it/percorso/js?query=&cl=1",Europe/Rome,,
ROME684,70731,"Tiburtina/Castro Laurenziano","",41.903873,12.520425,"",,,
ROME685,70732,"De Lollis/Verano","",41.901749,12.517780,"",,,
ROME686,70733,"Termini","",41.901188,12.500313,"",,,
ROME687,70735,"P.le Tiburtino","",41.896858,12.511385,"",,,
ROME688,70742,"Cavour/Annibaldi","",41.894306,12.491733,"",,,
ROME689,70743,"Ballarin/Cesarini","",41.836353,12.498223,"",,,
ROME690,70744,"Celio Vibenna","",41.889328,12.492772,"",,,
ROME691,70745,"S. Gregorio","",41.888172,12.490075,"",,,
ROME692,70746,"C.ne Ostiense/Colombo","",41.867378,12.495482,"",,,
ROME693,70747,"Aventino/Circo Massimo","",41.883999,12.488407,"",,,
ROME694,70748,"C.ne Ostiense/Padre Giuliani","",41.867393,12.492665,"",,,
ROME695,70749,"Aventino","",41.882778,12.486753,"",,,
ROME696,70751,"Ballarin/Grezar","",41.834469,12.496978,"",,,
ROME697,70752,"Aventino/Albania","",41.881222,12.484752,"",,,
ROME698,70753,"Massaia/Capistrano","",41.863613,12.492542,"",,,
ROME699,70754,"Porta S. Paolo","",41.877735,12.481790,"",,,
ROME700,70755,"Massaia/Spinola","",41.862309,12.493165,"",,,
ROME701,70756,"Staz. Trastevere","",41.873089,12.465860,"",,,
ROME702,70757,"Ostiense/Piramide","",41.875305,12.480658,"",,,
ROME703,70758,"Staz.ne Trastevere","",41.872814,12.465477,"",,,
ROME704,70761,"Costantino/Villa Lucina","",41.857380,12.484070,"",,,
ROME705,70762,"Costantino/Leonardo Da Vinci","",41.857792,12.481278,"",,,
ROME706,70763,"Vigna Murata/Corazzieri","25 M. DOPO SBOCCO VIA DEI CORAZZIERI",41.826336,12.485828,"http://muovi.roma.it/percorso/js?query=&cl=1",Europe/Rome,,
ROME707,70764,"L.go Leonardo Da Vinci","",41.856804,12.481068,"",,,
ROME708,70765,"Costantino/Leonardo Da Vinci","",41.857643,12.481393,"",,,
ROME709,70766,"Costantino/Villa Lucina","",41.857231,12.484423,"",,,
ROME710,70767,"Villa Lucina/Largo Delle Sette Chiese","",41.860462,12.486685,"",,,
ROME711,70769,"Massaia/Oderico Da Pordenone","",41.860817,12.493925,"",,,
ROME712,70770,"Massaia/Spinola","",41.862270,12.493357,"",,,
ROME713,70771,"Massaia/Capistrano","",41.864128,12.492342,"",,,
ROME714,70773,"C.ne Ostiense/Padre Giuliani","",41.866974,12.492533,"",,,
ROME715,70774,"Vigna Murata","",41.827412,12.481133,"",,,
ROME716,70775,"P.za S. Giovanni In Laterano","",41.886414,12.504222,"",,,
ROME717,70777,"P.za Venezia","",41.894909,12.481805,"",,,
ROME718,70780,"Carucci","",41.796864,12.489053,"",,,
ROME719,70782,"S. Prisca","",41.881279,12.484000,"",,,
ROME720,70783,"Ponzio Flaminio","",41.879196,12.485583,"",,,
ROME721,70784,"L. B. Alberti","",41.878193,12.487902,"",,,
ROME722,70787,"Cave Ardeatine/Piramide","",41.875546,12.482725,"",,,
ROME723,70788,"Partigiani/Staz.ne Ostiense","",41.873131,12.484457,"",,,
ROME724,70790,"Marco Polo/Brichetti","",41.872864,12.488817,"",,,
ROME725,70791,"Marco Polo/Roncinotto","",41.871647,12.492122,"",,,
ROME726,70794,"Newton/Alberese","RAMPA ADDUCENTE AL CAVALCAVIA - 20 M. PRIMA DEL CAVALCAVIA",41.848129,12.442151,"http://muovi.roma.it/percorso/js?query=&cl=1",Europe/Rome,,
ROME727,70795,"Casale De Merode/Annunziatella","",41.857502,12.503877,"",,,
ROME728,70796,"Annunziatella/Meropia","",41.854675,12.505708,"",,,
ROME729,70797,"Sartorio","",41.853436,12.505702,"",,,
ROME730,70798,"P.za Lante","",41.852058,12.502912,"",,,
ROME731,70800,"Annunziatella/Meropia","",41.855404,12.505692,"",,,
ROME732,70804,"Vigna Murata/Corazzieri","35 M. DOPO VIA DEI CORAZZIERI",41.825592,12.486790,"http://muovi.roma.it/percorso/js?query=&cl=1",Europe/Rome,,
ROME733,70806,"RHO","",41.862091,12.489338,"",,,
ROME734,70807,"De Nobili","",41.864189,12.491142,"",,,
ROME735,70808,"Massaia","",41.865288,12.491482,"",,,
ROME736,70810,"Ostiense/Matteucci","",41.873150,12.480408,"",,,
ROME737,70811,"Ostiense/Piramide","",41.875504,12.480815,"",,,
ROME739,70813,"Aventino/Albania","",41.880688,12.484758,"",,,
ROME740,70814,"Aventino","",41.881657,12.486023,"",,,
ROME741,70815,"Circo Massimo","",41.883148,12.487935,"",,,
ROME742,70816,"Celio Vibenna","",41.889069,12.492700,"",,,
ROME743,70817,"Cavour/Ricci","",41.893757,12.490058,"",,,
ROME744,70818,"Cavour/Annibaldi","",41.894192,12.491732,"",,,
ROME745,70821,"Serafico/Registri Immobiliari","",41.830372,12.489035,"",,,
ROME746,70822,"P.le Tiburtino","",41.896873,12.511592,"",,,
ROME747,70823,"Serafico","",41.831707,12.491770,"",,,
ROME748,70824,"Tiburtina/Castro Laurenziano","",41.903992,12.520667,"",,,
ROME749,70825,"Grezar/Ossola","",41.835411,12.494668,"",,,
ROME750,70826,"L.go Preneste","",41.892029,12.541783,"",,,
ROME751,70828,"Marco Polo/Roncinotto","",41.872410,12.490487,"",,,
ROME752,70829,"Marco Polo/Brichetti","",41.873241,12.488682,"",,,
ROME753,70831,"Prenestina/Conti","",41.892391,12.539888,"",,,
ROME754,70832,"Grezar/Picchi","",41.837208,12.491723,"",,,
ROME755,70834,"Cave Ardeatine/Piramide","",41.875355,12.483048,"",,,
ROME756,70836,"Prenestina/Gattamelata","",41.892426,12.536458,"",,,
ROME757,70838,"L. B. Alberti","",41.878460,12.487800,"",,,
ROME758,70839,"Bernini","",41.878395,12.485912,"",,,
ROME759,70840,"S. Saba/Ponzio F.","",41.878765,12.485065,"",,,
ROME760,70841,"S. Saba/Aventino","",41.880203,12.484693,"",,,
ROME761,70842,"Newton/Papa Leone","",41.846233,12.443730,"",,,
ROME762,70844,"Newton/Papa Leone","",41.846409,12.443855,"",,,
ROME763,70846,"Prenestina/Giovenale","",41.892029,12.531512,"",,,
ROME764,70847,"L.go Fiorentini","",41.898750,12.464835,"",,,
ROME765,70848,"Casaletto/Villa Zingone","",41.865261,12.437793,"",,,
ROME766,70849,"Prenestina/Officine Atac","",41.891087,12.524768,"",,,
ROME767,70850,"Prenestina/Caballini","",41.891258,12.521737,"",,,
ROME768,70851,"P.za Di Porta Maggiore","",41.891361,12.514393,"",,,
ROME769,70852,"P.le Flaminio","",41.911633,12.474930,"",,,
ROME770,70853,"Gioacchino Belli","",41.889999,12.474413,"",,,
ROME771,70854,"S. Paolo Del Brasile","",41.910038,12.487622,"",,,
ROME772,70855,"Veneto/Sardegna","",41.908207,12.489057,"",,,
ROME773,70856,"Veneto/Emilia","",41.905830,12.488597,"",,,
ROME774,70858,"Barberini","",41.904358,12.488443,"",,,
ROME775,70859,"Tritone/Barberini","",41.903301,12.487407,"",,,
ROME777,70862,"Manzoni","",41.890255,12.506022,"",,,
ROME778,70863,"Labicana/Merulana","",41.889229,12.502698,"",,,
ROME779,70864,"Labicana","",41.889767,12.498632,"",,,
ROME780,70865,"Colosseo/Salvi N.","",41.889702,12.493943,"",,,
ROME781,70866,"Parco Celio","",41.887314,12.491098,"",,,
ROME785,70871,"Marmorata/Caio Cestio","",41.877491,12.480167,"",,,
ROME786,70873,"Marmorata/Galvani","",41.879112,12.478905,"",,,
ROME787,70874,"Isole Curzolane/Monte Bove","",41.949673,12.528008,"",,,
ROME788,70875,"Marmorata/Vanvitelli","",41.881016,12.477597,"",,,
ROME789,70876,"Marmorata/Caio Cestio","",41.877529,12.480290,"",,,
ROME790,70877,"Emporio","",41.882771,12.476025,"",,,
ROME791,70878,"Porta Portese","",41.883919,12.474348,"",,,
ROME792,70880,"Emporio","",41.883057,12.476605,"",,,
ROME793,70886,"Barberini","",41.904514,12.488512,"",,,
ROME794,70888,"Vanni G.","30 M. DOPO VIA P.A.FONTEBASSO ALTEZZA CIVICO 32 A",41.881565,12.359556,"http://muovi.roma.it/percorso/js?query=&cl=1",Europe/Rome,,
ROME795,70898,"Tiziano/Carpi","",41.926483,12.470797,"",,,
ROME796,70899,"Pescaccio/Centro Commerciale","60 M. DOPO USCITA PARCHEGGIO METRO",41.870461,12.378236,"http://muovi.roma.it/percorso/js?query=&cl=1",Europe/Rome,,
ROME797,70900,"Nervi/Palazzo Sport","",41.824070,12.465972,"",,,
ROME798,70903,"Tecnica/Ciclismo","",41.827412,12.459342,"",,,
ROME799,70905,"Tecnica/Umanesimo","",41.828941,12.460128,"",,,
ROME800,70906,"Pescaccio/Brava","20 M. PRIMA VIA DI BRAVA",41.872604,12.379863,"http://muovi.roma.it/percorso/js?query=&cl=1",Europe/Rome,,
ROME802,70908,"America/Beethoven","40 M. PRIMA SBOCCO VLE BEETHOVEN FRONTE CIVICO 137",41.830601,12.464796,"http://muovi.roma.it/percorso/js?query=&cl=1",Europe/Rome,,
ROME803,70909,"Pescaccio/Brava","80 M. DOPO VIA DI BRAVA",41.872532,12.379119,"http://muovi.roma.it/percorso/js?query=&cl=1",Europe/Rome,,
ROME804,70911,"Europa/Colombo","60 M. DOPO VIA C. COLOMBO - PRIMA CIVICO 242",41.830341,12.470593,"http://muovi.roma.it/percorso/js?query=&cl=1",Europe/Rome,,
ROME805,70913,"Pescaccio/Centro Commerciale","15 M. PRIMA USCITA PARCHEGGIO METRO",41.869843,12.378113,"http://muovi.roma.it/percorso/js?query=&cl=1",Europe/Rome,,
ROME806,70914,"Arte/Archivio Di Stato","20 M. DOPO PLE DEGLI ARCHIVI FRONTE CIVICO 50",41.829548,12.474526,"http://muovi.roma.it/percorso/js?query=&cl=1",Europe/Rome,,
ROME808,70918,"Kennedy/Ministero Sanita'","",41.834785,12.474095,"",,,
ROME809,70920,"Induno","",41.885048,12.471468,"",,,
ROME810,70921,"Porta Portese","",41.883812,12.474315,"",,,
ROME811,70922,"Casale Lumbroso/Neper","",41.864487,12.359313,"",,,
ROME812,70923,"Marmorata/Vanvitelli","",41.880749,12.477592,"",,,
ROME813,70924,"Marconi/Pincherle","",41.852829,12.473235,"",,,
ROME814,70925,"Marmorata/Galvani","",41.878807,12.478938,"",,,
ROME815,70926,"Marconi/Bortolotti","",41.855347,12.472070,"",,,
ROME816,70927,"Porta S. Paolo","",41.877125,12.481645,"",,,
ROME817,70928,"Marconi/Edison","40 M. DOPO VIA T.CALZECCHI ONESTI",41.857742,12.471335,"http://muovi.roma.it/percorso/js?query=&cl=1",Europe/Rome,,
ROME819,70930,"Marconi/Fermi","25 M. DOPO P.ZA E.FERMI",41.865009,12.469241,"http://muovi.roma.it/percorso/js?query=&cl=1",Europe/Rome,,
ROME820,70932,"Albania","",41.880390,12.484230,"",,,
ROME821,70933,"P.za Della Radio","25 M. DOPO VIA DEI PAPARESCHI",41.870132,12.467789,"http://muovi.roma.it/percorso/js?query=&cl=1",Europe/Rome,,
ROME822,70934,"Orti Di Cesare","",41.873611,12.466135,"",,,
ROME824,70938,"Casale Lumbroso/Neper","",41.864723,12.359728,"",,,
ROME825,70939,"Lgt Alberteschi","",41.889389,12.477405,"",,,
ROME826,70940,"Colosseo","",41.889927,12.494197,"",,,
ROME827,70942,"Senorbi/Irgoli","",41.838158,12.355910,"",,,
ROME828,70943,"Manzoni/Merulana","",41.889614,12.504373,"",,,
ROME829,70944,"Senorbi/Arzana","",41.835323,12.356647,"",,,
ROME830,70945,"Senorbi/Narcao","",41.833347,12.358020,"",,,
ROME831,70947,"Senorbi/Ardara","",41.829708,12.360055,"",,,
ROME832,70948,"Senorbi/Muros","",41.831646,12.359953,"",,,
ROME833,70949,"Senorbi/Narcao","",41.833656,12.357710,"",,,
ROME834,70950,"Senorbi/Arzana","",41.836353,12.356982,"",,,
ROME835,70951,"Orti Di Cesare","55 M. DOPO V.LE TRASTEVERE",41.872982,12.466675,"http://muovi.roma.it/percorso/js?query=&cl=1",Europe/Rome,,
ROME836,70952,"Senorbi/Irgoli","",41.838322,12.355910,"",,,
ROME837,70953,"De Bosis","100 M. PRIMA SBOCCO PONTE DUCA D'AOSTA",41.932640,12.460044,"http://muovi.roma.it/percorso/js?query=&cl=1",Europe/Rome,,
ROME838,70955,"Marconi/Meucci","5 M. DOPO VIA A.MEUCCI",41.866077,12.468569,"http://muovi.roma.it/percorso/js?query=&cl=1",Europe/Rome,,
ROME839,70956,"Prenestina/Caballini","",41.891266,12.520102,"",,,
ROME840,70957,"Prenestina/Officine Atac","",41.891022,12.525265,"",,,
ROME841,70958,"Moratelle","",41.834583,12.345310,"",,,
ROME842,70959,"Prenestina/Giovenale","",41.891907,12.531428,"",,,
ROME843,70960,"Moratelle","",41.834412,12.345435,"",,,
ROME844,70961,"Marconi/Righi","20 M. PRIMA DI P.ZA A.RIGHI  ALTEZZA CIVICO 312",41.861900,12.469718,"http://muovi.roma.it/percorso/js?query=&cl=1",Europe/Rome,,
ROME845,70963,"Marconi/Bortolotti","",41.855682,12.471538,"",,,
ROME846,70964,"Marconi/Pincherle","",41.851974,12.473237,"",,,
ROME847,70965,"Marconi/Gibilmanna","",41.846661,12.475670,"",,,
ROME848,70966,"Kant/Bertero","",41.933792,12.555118,"",,,
ROME849,70970,"Prenestina/Gattamelata","",41.892334,12.537228,"",,,
ROME850,70972,"Frantoio/Vanga","",41.911503,12.561970,"",,,
ROME851,70973,"Togliatti","",41.891354,12.574425,"",,,
ROME853,70976,"Museo Civilta' Romana","20 M. DOPO VLE CIVILTA' ROMANA ALTEZZA CIVICO 13",41.832397,12.475989,"http://muovi.roma.it/percorso/js?query=&cl=1",Europe/Rome,,
ROME854,70978,"America/Beethoven","40 M. DOPO VLE BEETHOVEN ALTEZZA CIVICO 133",41.830666,12.464870,"http://muovi.roma.it/percorso/js?query=&cl=1",Europe/Rome,,
ROME855,70979,"America/Tupini","20 M. DOPO VLE PASTEUR ALTEZZA CIVICO 23",41.831474,12.462228,"http://muovi.roma.it/percorso/js?query=&cl=1",Europe/Rome,,
ROME856,70980,"Tecnica/Umanesimo","",41.829041,12.460022,"",,,
ROME857,70981,"Tecnica/Ciclismo","",41.827347,12.459127,"",,,
ROME858,70984,"Gregorio Vii/Pio Xi","40 M. DOPO SBOCCO VIA LEONE XIII CORSIA CENTRALE",41.893726,12.436673,"http://muovi.roma.it/percorso/js?query=&cl=1",Europe/Rome,,
ROME859,70985,"Gregorio Vii/Zucchi","120 M. PRIMA VIA ZUCCHI CORSIA CENTRALE",41.893734,12.433515,"http://muovi.roma.it/percorso/js?query=&cl=1",Europe/Rome,,
ROME860,70986,"Gregorio Vii/Villa Carpegna","10 M. PRIMA P.ZA VILLA CARPEGNA  CORSIA CENTRALE",41.894730,12.430157,"http://muovi.roma.it/percorso/js?query=&cl=1",Europe/Rome,,
ROME861,70987,"Torre Rossa/Collegio S. Paolo","45 M. DOPO CIVICO 42",41.892883,12.427772,"http://muovi.roma.it/percorso/js?query=&cl=1",Europe/Rome,,
ROME862,70988,"Torre Rossa/Domus Pacis","20 M. DOPO CIVICO 66",41.891712,12.426975,"http://muovi.roma.it/percorso/js?query=&cl=1",Europe/Rome,,
ROME863,70989,"Aurelia Antica/Torre Rossa","30 M. DOPO VIA TORRE ROSSA FRONTE CIVICO 403",41.890289,12.425919,"http://muovi.roma.it/percorso/js?query=&cl=1",Europe/Rome,,
ROME864,70990,"Aurelia Antica/Don Guanella","25 M.PRIMA FRONTE CIVICO 437",41.889217,12.423884,"http://muovi.roma.it/percorso/js?query=&cl=1",Europe/Rome,,
ROME865,70991,"Bravetta/Fontanile Arenato","40 M. DOPO VIA FONTANILE ARENATO ALTEZZA CIVICO 8",41.887478,12.421394,"http://muovi.roma.it/percorso/js?query=&cl=1",Europe/Rome,,
ROME866,70992,"Bravetta/Pisana","35 M. DOPO VIA DEI GONZAGA ALTEZZA CIVICO 66",41.885754,12.422238,"http://muovi.roma.it/percorso/js?query=&cl=1",Europe/Rome,,
ROME867,70993,"Bravetta/Dei Capasso","45 M. DOPO VIA DEI FELTRESCHI PRIMA CIVICO 170",41.883381,12.424249,"http://muovi.roma.it/percorso/js?query=&cl=1",Europe/Rome,,
ROME868,70994,"Bravetta/Guidi","70 M. DOPO VIA DEI MALATESTA ALTEZZA CIVICO 254",41.880821,12.426087,"http://muovi.roma.it/percorso/js?query=&cl=1",Europe/Rome,,
ROME869,70995,"Bravetta/Consolata","20 M. PRIMA VIA ISABELLA D'ESTE ALTEZZA CIVICO 352",41.877548,12.426286,"http://muovi.roma.it/percorso/js?query=&cl=1",Europe/Rome,,
ROME870,70996,"Buon Pastore","45 M. DOPO VIA DELLA CONSOLATA DOPO CIVICO 376",41.876331,12.425795,"http://muovi.roma.it/percorso/js?query=&cl=1",Europe/Rome,,
ROME871,70997,"Bravetta/Arcelli","25 M. PRIMA VIA F.DE FICORONI ALTEZZA CIVICO 460",41.875015,12.424171,"http://muovi.roma.it/percorso/js?query=&cl=1",Europe/Rome,,
ROME872,70998,"Bravetta/Scrovegni","75 M. DOPO VIA DEGLI SCROVEGNI PRIMA CIVICO 566 - CAPOLINEA 33DS",41.872204,12.422443,"http://muovi.roma.it/percorso/js?query=&cl=1",Europe/Rome,,
ROME873,70999,"Bravetta/Marcellini","25 M. DOPO VIA DEI MARCELLINI ALTEZZA CIVICO 656",41.869770,12.422380,"http://muovi.roma.it/percorso/js?query=&cl=1",Europe/Rome,,
ROME874,71000,"Bravetta/Scaligeri","70 M. DOPO VIA DEGLI SCALIGERI DOPO CIVICO 714",41.868546,12.422761,"http://muovi.roma.it/percorso/js?query=&cl=1",Europe/Rome,,
ROME875,71001,"Prenestina/Larici","",41.895115,12.573857,"",,,
ROME876,71002,"Forte Bravetta","40 M. PRIMA VIA DE' JACOVACCI PRIMA CIVICO 788",41.866611,12.423323,"http://muovi.roma.it/percorso/js?query=&cl=1",Europe/Rome,,
ROME877,71003,"Casetta Mattei/Conte","100 M. DOPO SBOCCO VLO DEL CONTE DOPO CIVICO 435",41.864731,12.422660,"http://muovi.roma.it/percorso/js?query=&cl=1",Europe/Rome,,
ROME878,71004,"Prenestina/Valente","",41.895180,12.567225,"",,,
ROME879,71005,"Prenestina/Cocconi","",41.895077,12.563583,"",,,
ROME880,71006,"Casetta Mattei/Carafa","30 M. DOPO VIA DEI CARAFA ALTEZZA CIVICO 331",41.862034,12.420391,"http://muovi.roma.it/percorso/js?query=&cl=1",Europe/Rome,,
ROME881,71007,"Prenestina/Tor De' Schiavi","",41.894672,12.557917,"",,,
ROME882,71008,"Casetta Mattei/Cantelmo","70 M. DOPO VIA POZZI DOPO CIVICO 279",41.861088,12.419716,"http://muovi.roma.it/percorso/js?query=&cl=1",Europe/Rome,,
ROME883,71009,"Casetta Mattei/Della Bitta","25 M. DOPO VIA ANDREA DEL VERROCCHIO ALTEZZA CIVICO 225",41.858601,12.419381,"http://muovi.roma.it/percorso/js?query=&cl=1",Europe/Rome,,
ROME884,71011,"Prenestina/Olevano Romano","",41.894337,12.555283,"",,,
ROME885,71012,"Poggio Verde/Casetta Mattei","50 M. DOPO VIA CASETTA MATTEI  DOPO CIV. 8",41.857052,12.419255,"http://muovi.roma.it/percorso/js?query=&cl=1",Europe/Rome,,
ROME886,71013,"Poggio Verde/Mazzacurati","30 M. DOPO CIVICO 40",41.856182,12.416953,"http://muovi.roma.it/percorso/js?query=&cl=1",Europe/Rome,,
ROME887,71014,"Prenestina/Irpinia","",41.893856,12.551297,"",,,
ROME888,71015,"Prenestina/Telese","",41.893375,12.547315,"",,,
ROME889,71016,"Prenestina/Acqua Bullicante","",41.892792,12.542352,"",,,
ROME890,71017,"Poggio Verde/Fedi","ALTEZZA L.GO PIO FEDI",41.853504,12.413398,"http://muovi.roma.it/percorso/js?query=&cl=1",Europe/Rome,,
ROME891,71018,"Poggio Verde/Tabacchi","ALTEZZA L.GO O.TABACCHI",41.851837,12.412740,"http://muovi.roma.it/percorso/js?query=&cl=1",Europe/Rome,,
ROME892,71019,"Poggio Verde/Trentacoste","ALTEZZA L.GO TRENTACOSTE",41.850067,12.412013,"http://muovi.roma.it/percorso/js?query=&cl=1",Europe/Rome,,
ROME893,71020,"Poggio Verde/Quadrelli","ALTEZZA L.GO E.QUADRELLI",41.848419,12.411331,"http://muovi.roma.it/percorso/js?query=&cl=1",Europe/Rome,,
ROME894,71021,"Reduzzi","",41.846752,12.410655,"",,,
ROME895,71022,"Mazzacurati/Sampieri","100 M. DOPO VIA DEI SAMPIERI",41.852127,12.414245,"http://muovi.roma.it/percorso/js?query=&cl=1",Europe/Rome,,
ROME896,71023,"Mazzacurati","FRONTE LGO C.REDUZZI CAPOLINEA 98-98F-180-889-n98",41.846523,12.411322,"http://muovi.roma.it/percorso/js?query=&cl=1",Europe/Rome,,
ROME897,71024,"Poggio Verde/Mazzacurati","FRONTE CIVICO 40",41.856167,12.417331,"http://muovi.roma.it/percorso/js?query=&cl=1",Europe/Rome,,
ROME898,71025,"Poggio Verde/Casetta Mattei","30 M. PRIMA VIA CASETTA MATTEI FR.CIV.6",41.856693,12.419635,"http://muovi.roma.it/percorso/js?query=&cl=1",Europe/Rome,,
ROME899,71026,"P.za Di Porta Maggiore","",41.891369,12.514663,"",,,
ROME900,71027,"Casetta Mattei/Della Bitta","ALTEZZA SBOCCO VIA DEI DELLA BITTA ALTEZZA CIVICO 212",41.858276,12.419600,"http://muovi.roma.it/percorso/js?query=&cl=1",Europe/Rome,,
ROME901,71028,"Casetta Mattei/Cantelmo","70 M. PRIMA SBOCCO VIA POZZI PRIMA CIVICO 279",41.860851,12.419800,"http://muovi.roma.it/percorso/js?query=&cl=1",Europe/Rome,,
ROME902,71029,"Casetta Mattei/Carafa","25 M. DOPO SBOCCO VIA DEI CARAFA PRIMA FRONTE CIVICO 359",41.862453,12.421027,"http://muovi.roma.it/percorso/js?query=&cl=1",Europe/Rome,,
ROME903,71030,"Principe Eugenio/Manzoni","",41.893517,12.508880,"",,,
ROME904,71031,"Casetta Mattei/Conte","50 M. PRIMA VLO DEL CONTE DOPO FRONTE CIVICO 439",41.865063,12.423137,"http://muovi.roma.it/percorso/js?query=&cl=1",Europe/Rome,,
ROME905,71033,"P.za Vittorio Emanuele","",41.895088,12.505053,"",,,
ROME906,71034,"Bravetta/Marcellini","25 M. DOPO SBOCCO VIA MARCELLINI FRONTE CIVICO 630",41.870358,12.422770,"http://muovi.roma.it/percorso/js?query=&cl=1",Europe/Rome,,
ROME908,71036,"Bravetta/Scrovegni","50 M. PRIMA SBOCCO VIA DEGLI SCROVEGNI PRIMA CIVICO 545",41.872494,12.422609,"http://muovi.roma.it/percorso/js?query=&cl=1",Europe/Rome,,
ROME909,71037,"Bravetta/Arcelli","70 M. DOPO SBOCCO VIA F.DE FICORONI DOPO CIVICO 411",41.875198,12.424732,"http://muovi.roma.it/percorso/js?query=&cl=1",Europe/Rome,,
ROME910,71039,"Buon Pastore","85 M. PRIMA VIA SILVESTRI",41.876411,12.425990,"http://muovi.roma.it/percorso/js?query=&cl=1",Europe/Rome,,
ROME911,71040,"Napoleone Iii","",41.897915,12.500242,"",,,
ROME912,71041,"Bravetta/Serafini","130 M. PRIMA VIA SERAFINI PRIMA CIVICO 345",41.878624,12.426783,"http://muovi.roma.it/percorso/js?query=&cl=1",Europe/Rome,,
ROME913,71042,"Bravetta/Guidi","65 M. DOPO LGO GUIDI ALTEZZA CIVICO 233",41.881737,12.425656,"http://muovi.roma.it/percorso/js?query=&cl=1",Europe/Rome,,
ROME914,71043,"Bravetta/Feltreschi","25 M. DOPO SBOCCO VIA DEI FELTRESCHI DOPO FRONTE CIVICO 156",41.884045,12.423965,"http://muovi.roma.it/percorso/js?query=&cl=1",Europe/Rome,,
ROME916,71046,"Bravetta/Fontanile Arenato","40 M. PRIMA SBOCCO VIA FONTANILE ARENATO FRONTE CIVICO 8",41.887585,12.421665,"http://muovi.roma.it/percorso/js?query=&cl=1",Europe/Rome,,
ROME917,71047,"Aurelia Antica/Don Guanella","30 M. PRIMA CIVICO 433",41.888802,12.423293,"http://muovi.roma.it/percorso/js?query=&cl=1",Europe/Rome,,
ROME918,71048,"Aurelia Antica/Torre Rossa","15 M. PRIMA CIVICO 413",41.889805,12.425398,"http://muovi.roma.it/percorso/js?query=&cl=1",Europe/Rome,,
ROME919,71049,"Farini","",41.898167,12.499515,"",,,
ROME920,71050,"Torre Rossa/Domus Pacis","25 M. DOPO FRONTE CIVICO 66",41.892052,12.427367,"http://muovi.roma.it/percorso/js?query=&cl=1",Europe/Rome,,
ROME921,71051,"Torre Rossa/Collegio S. Paolo","20 M. DOPO CIVICO 35",41.893215,12.428173,"http://muovi.roma.it/percorso/js?query=&cl=1",Europe/Rome,,
ROME924,71056,"Gregorio Vii/Zucchi","",41.893456,12.434203,"",,,
ROME925,71057,"Gregorio Vii/Pio Xi","",41.893837,12.437042,"",,,
ROME926,71059,"Gregorio Vii/Satolli","",41.895126,12.438998,"",,,
ROME927,71060,"Principe Eugenio/Manzoni","",41.893227,12.509482,"",,,
ROME928,71061,"Gregorio Vii/Di Pietro","",41.896301,12.442277,"",,,
ROME929,71062,"Gregorio Vii/S. Damaso","",41.895660,12.444900,"",,,
ROME930,71063,"P.za Di Porta Maggiore","",41.891762,12.514565,"",,,
ROME931,71064,"Labicano/Porta Maggiore","",41.891457,12.515813,"",,,
ROME935,71069,"P.le Prenestino","",41.891289,12.527853,"",,,
ROME938,71072,"Casale S. Basilio/Fabriano","30 M. DOPO SBOCCO VIA FABRIANO ALTEZZA CIVICO 190",41.936962,12.580805,"http://muovi.roma.it/percorso/js?query=&cl=1",Europe/Rome,,
ROME939,71073,"L.go Preneste","",41.892330,12.540112,"",,,
ROME940,71074,"Casale S. Basilio/Tiburtina","FRONTE CIVICO 213",41.934090,12.583505,"http://muovi.roma.it/percorso/js?query=&cl=1",Europe/Rome,,
ROME941,71075,"Prenestina/Acqua Bullicante","",41.892769,12.543265,"",,,
ROME942,71077,"Prenestina/Telese","45 M.DOPO LGO TELESE ALT. CIVICO 278 CORSIA LATERALE",41.893219,12.547852,"http://muovi.roma.it/percorso/js?query=&cl=1",Europe/Rome,,
ROME943,71079,"Prenestina/Irpinia","",41.893806,12.551777,"",,,
ROME944,71082,"Rebibbia","70 M. DOPO SBOCCO VIA LANCIANO",41.926136,12.573776,"http://muovi.roma.it/percorso/js?query=&cl=1",Europe/Rome,,
ROME945,71083,"Staz.ne Metro Cipro","",41.907082,12.448143,"",,,
ROME946,71085,"S. Maria Del Soccorso","",41.915211,12.560828,"",,,
ROME947,71086,"Prenestina/Olevano Romano","",41.894276,12.555885,"",,,
ROME948,71087,"Tiburtina/Carri Armati","",41.913883,12.557645,"",,,
ROME949,71088,"Tiburtina/Monti Tiburtini","",41.912708,12.554403,"",,,
ROME950,71089,"Tiburtina/Cesana","",41.911217,12.550257,"",,,
ROME951,71090,"Prenestina/Tor De' Schiavi","",41.894802,12.559790,"",,,
ROME952,71091,"Tiburtina/Diego Angeli","",41.910233,12.548110,"",,,
ROME953,71093,"Prenestina/Cocconi","",41.894943,12.564005,"",,,
ROME9482,71094,"Tiburtina/Galla Placidia","",41.908688,12.542973,"",,,
ROME9483,71095,"Tiburtina/Ottoboni","",41.908588,12.540147,"",,,
ROME954,71096,"Prenestina/Valente","",41.895054,12.567988,"",,,
ROME9446,71097,"Tiburtina/Portonaccio","25 M.PRIMA SBOCCO VIA PORTONACCIO DOPO CIV.335 CORSIA CENT.",41.908218,12.534690,"http://muovi.roma.it/percorso/js?query=&cl=1",Europe/Rome,,
ROME955,71099,"Prenestina/Larici","",41.894962,12.574237,"",,,
ROME957,71101,"Togliatti/Abelie","",41.893501,12.574555,"",,,
ROME958,71102,"Togliatti","",41.891281,12.574198,"",,,
ROME959,71104,"Claudia/Colosseo","",41.888100,12.494078,"",,,
ROME961,71106,"Navicella/Villa Celimontana","",41.884232,12.496068,"",,,
ROME962,71107,"Claudia/Celio","",41.886391,12.494952,"",,,
ROME963,71108,"Tiburtina/Verano","65 M.PRIMA CIRCONVALLAZIONE TIBURTINA CORSIA LATERALE",41.908024,12.529445,"http://muovi.roma.it/percorso/js?query=&cl=1",Europe/Rome,,
ROME9447,71109,"Tiburtina/Portonaccio","65 M.DOPO VIA DI PORTONACCIO ALTEZZA CIV.358 CORS.CENTRALE",41.908154,12.535587,"http://muovi.roma.it/percorso/js?query=&cl=1",Europe/Rome,,
ROME964,71110,"P.za S. Giovanni In Laterano","",41.886654,12.504502,"",,,
ROME9444,71112,"Tiburtina/Galla Placidia","",41.908577,12.543423,"",,,
ROME966,71113,"Tiburtina/Bargellini","",41.909386,12.547013,"",,,
ROME967,71114,"Tiburtina/Diego Angeli","",41.910385,12.549088,"",,,
ROME968,71115,"Tiburtina/Cesana","",41.911137,12.550942,"",,,
ROME969,71116,"Tiburtina/Pietralata","",41.913216,12.556527,"",,,
ROME971,71120,"Ripa Teatina","20 M.DOPO VIA TIBURTINA  ALTEZZA CIVICO 18",41.924690,12.572802,"http://muovi.roma.it/percorso/js?query=&cl=1",Europe/Rome,,
ROME973,71122,"Tiburtina/Lanciano","",41.927132,12.575117,"",,,
ROME975,71127,"Mocenigo","",41.908886,12.451250,"",,,
ROME976,71129,"Morrovalle/Osimo","25 M. DOPO VIA OSIMO DOPO CIVICO 60",41.936993,12.583117,"http://muovi.roma.it/percorso/js?query=&cl=1",Europe/Rome,,
ROME977,71131,"Morrovalle/Sirolo","20 M. DOPO VIA SIROLO",41.939110,12.585496,"http://muovi.roma.it/percorso/js?query=&cl=1",Europe/Rome,,
ROME980,71134,"Portonaccio/Silvio Latino","65 M. PRIMA VIA S.LATINO",41.895679,12.541639,"http://muovi.roma.it/percorso/js?query=&cl=1",Europe/Rome,,
ROME981,71135,"Portonaccio/Arimondi","",41.897625,12.539953,"",,,
ROME982,71136,"Gregorio Vii/Leone Xiii","",41.893505,12.435445,"",,,
ROME983,71138,"Casal Bertone/Pollio","",41.897507,12.533712,"",,,
ROME984,71140,"Casal Bertone/Pollio","",41.897274,12.533602,"",,,
ROME985,71143,"SACCO","",41.916832,12.560277,"",,,
ROME986,71144,"TONDI","",41.917309,12.559570,"",,,
ROME987,71145,"Gregorio Vii/Zucchi","",41.894089,12.432845,"",,,
ROME988,71146,"Gregorio Vii/Villa Carpegna","",41.894836,12.430485,"",,,
ROME989,71147,"Pietralata/Michelotti","",41.915604,12.555702,"",,,
ROME990,71148,"Pietralata/Pomona","",41.917480,12.555313,"",,,
ROME991,71149,"Pietralata/Silvano","",41.918728,12.553905,"",,,
ROME992,71150,"Pietralata/Messi D'oro","",41.919380,12.552108,"",,,
ROME993,71151,"Pietralata/Casale Pietralata","110 M. PRIMA SBOCCO VIA DURANTINI PRIMA CIVICO 343",41.920231,12.547901,"http://muovi.roma.it/percorso/js?query=&cl=1",Europe/Rome,,
ROME994,71152,"Durantini/Pietralata","70 M. DOPO VIA DI PIETRALATA ALTEZZA CIVICO 283",41.920364,12.546351,"http://muovi.roma.it/percorso/js?query=&cl=1",Europe/Rome,,
ROME995,71153,"Valle Aurelia/Gandino","10 M. PRIMA VIA G.B.GANDINO ALTEZZA CIVICO 61",41.901997,12.437684,"http://muovi.roma.it/percorso/js?query=&cl=1",Europe/Rome,,
ROME996,71155,"Valle Aurelia","",41.903027,12.441940,"",,,
ROME998,71158,"Beltramelli","30 M. PRIMA SBOCCO VIA GIUSEPPE MARCOTTI",41.909958,12.537924,"http://muovi.roma.it/percorso/js?query=&cl=1",Europe/Rome,,
ROME1000,71160,"Portonaccio/Silvio Latino","",41.895565,12.541287,"",,,
ROME1001,71162,"Beltramelli","15 M. PRIMA VIA GABRIELE GALANTARA ALT. CIVICO 26",41.910175,12.538420,"http://muovi.roma.it/percorso/js?query=&cl=1",Europe/Rome,,
ROME1002,71163,"Cave Di Pietralata/Tiburtina","25 M. DOPO VIA CUPRA ALTEZZA CIVICO 23",41.909122,12.537108,"http://muovi.roma.it/percorso/js?query=&cl=1",Europe/Rome,,
ROME1003,71165,"Durantini/Calza","20 M. DOPO VIA A.CALZA  ALTEZZA CIVICO 146",41.913776,12.541894,"http://muovi.roma.it/percorso/js?query=&cl=1",Europe/Rome,,
ROME1004,71166,"Durantini/Cave Di Pietralata","25 M. DOPO SBOCCO VIA CAVE PIETRALATA DOPO FR.161",41.915947,12.541892,"http://muovi.roma.it/percorso/js?query=&cl=1",Europe/Rome,,
ROME1005,71167,"Durantini/Monti Tiburtini","15 M.DOPO SBOCCO VIA CARLO RIVA ALTEZZA CIVICO 268",41.917324,12.543594,"http://muovi.roma.it/percorso/js?query=&cl=1",Europe/Rome,,
ROME1006,71168,"Durantini/Feronia","25 M. DOPO VIA FERONIA ALTEZZA CIVICO 352",41.919224,12.545564,"http://muovi.roma.it/percorso/js?query=&cl=1",Europe/Rome,,
ROME1007,71169,"Durantini/Pietralata","50 M. PRIMA VIA DI PIETRALATA ALTEZZA CIVICO 416",41.920452,12.546602,"http://muovi.roma.it/percorso/js?query=&cl=1",Europe/Rome,,
ROME1008,71170,"Pietralata/Casale Pietralata","190 M. DOPO VIA DEI DURANTINI - 14 M. DOPO CIVICO 332/B",41.919735,12.548645,"http://muovi.roma.it/percorso/js?query=&cl=1",Europe/Rome,,
ROME1009,71171,"Navicella/Villa Celimontana","",41.884621,12.496078,"",,,
ROME1010,71172,"FLORA","",41.919029,12.551157,"",,,
ROME1011,71173,"Claudia/Celio","",41.886806,12.494937,"",,,
ROME1012,71174,"Marica","",41.917538,12.550798,"",,,
ROME1013,71175,"Claudia/Colosseo","",41.888618,12.494025,"",,,
ROME1014,71176,"Pomona","",41.916576,12.553382,"",,,
ROME1015,71177,"Cerchi/Porta Capena","",41.885357,12.488473,"",,,
ROME1016,71178,"Ostiense/Staz.ne Vitinia","",41.795662,12.403610,"",,,
ROME1017,71180,"Michelotti","",41.915234,12.556227,"",,,
ROME1018,71183,"Tondi/Montalbani","",41.917797,12.558140,"",,,
ROME1019,71184,"Xx Settembre/Min. Finanze","",41.905849,12.496543,"",,,
ROME1020,71185,"Volturno/Cernaia","",41.904625,12.499420,"",,,
ROME1021,71186,"Volturno","",41.903709,12.500522,"",,,
ROME1022,71187,"Augusto Imperatore","",41.905674,12.477100,"",,,
ROME1023,71189,"Collatina/Tor Sapienza","60 M. PRIMA VIA STZ. DI TOR SAPIENZA (INIZIO COLL. B01-B05-B06)",41.904800,12.595782,"http://muovi.roma.it/percorso/js?query=&cl=1",Europe/Rome,,
ROME1024,71190,"Vega/Staz.ne Stella Polare","",41.726768,12.294480,"",,,
ROME1025,71191,"Tor Sapienza/Cecioni","25 M. DOPO VIA F. DE ANDREIS FRONTE CIVICO 23",41.901905,12.590266,"http://muovi.roma.it/percorso/js?query=&cl=1",Europe/Rome,,
ROME1026,71192,"Tor Sapienza/Michetti","20 M. PRIMA VIA L.DELLEANI ALTEZZA CIVICO 68",41.900768,12.590565,"http://muovi.roma.it/percorso/js?query=&cl=1",Europe/Rome,,
ROME1027,71193,"Tor Sapienza/Rucellai","10 M. PRIMA VIA RUCELLAI PRIMA CIVICO 138",41.897575,12.591374,"http://muovi.roma.it/percorso/js?query=&cl=1",Europe/Rome,,
ROME1028,71194,"Tor Sapienza/Joris","20 M. PRIMA SBOCCO VIA PIO JORIS FRONTE CIVICO 89/D",41.899315,12.590934,"http://muovi.roma.it/percorso/js?query=&cl=1",Europe/Rome,,
ROME1029,71195,"Prenestina/Tor Tre Teste","45 M. DOPO VIA DI TOR SAPIENZA PRIMA CIVICO 711",41.894188,12.591720,"http://muovi.roma.it/percorso/js?query=&cl=1",Europe/Rome,,
ROME1030,71196,"Prenestina/Staderini","25 M. PRIMA VIA DELLA FARFALLA FRONTE CIVICO 706",41.893917,12.586352,"http://muovi.roma.it/percorso/js?query=&cl=1",Europe/Rome,,
ROME1031,71197,"Prenestina/Candiani","30 M. DOPO SBOCCO VIA CANDIANI PRIMA CIVICO 607 - FINE CORSA A50",41.893692,12.583965,"http://muovi.roma.it/percorso/js?query=&cl=1",Europe/Rome,,
ROME1032,71198,"Prenestina/Manfredonia","25 M. PRIMA SBOCCO VIA MANFREDONIA - INIZIO CORSA A07",41.894489,12.577395,"http://muovi.roma.it/percorso/js?query=&cl=1",Europe/Rome,,
ROME1033,71199,"Prenestina/Larici","30 M.DOPO VLE P.TOGLIATTI PR.CIV.493 CORSIA LATERALE - INIZIO CORSA A01-A06",41.895187,12.574189,"http://muovi.roma.it/percorso/js?query=&cl=1",Europe/Rome,,
ROME1034,71200,"Prenestina/Valente","100 M.DOPO V.LE G.B.VALENTE ALT.CIV.451 CORS.LATER.",41.895187,12.565239,"http://muovi.roma.it/percorso/js?query=&cl=1",Europe/Rome,,
ROME1035,71201,"Prenestina/Cocconi","35 M. DOPO VIA COLLATINA CORSIA LATERALE",41.895096,12.562424,"http://muovi.roma.it/percorso/js?query=&cl=1",Europe/Rome,,
ROME1036,71202,"Prenestina/Tor De' Schiavi","30 M.PR.VIA ROVIGNO D'ISTRIA ALT.CIV.357 CORS.LAT.",41.894722,12.557214,"http://muovi.roma.it/percorso/js?query=&cl=1",Europe/Rome,,
ROME1037,71203,"Prenestina/Olevano Romano","25 M.DOPO SB.VIA OLEVANO ROMANO CORSIA LATERALE",41.894386,12.554485,"http://muovi.roma.it/percorso/js?query=&cl=1",Europe/Rome,,
ROME1038,71204,"Nocera Umbra/Tuscolana","",41.876842,12.526693,"",,,
ROME1039,71205,"Prenestina/Irpinia","65 M.DOPO VIA DIGNANO D'ISTRIA ALT.CIV.319/D CORSIA LATER.",41.893826,12.550173,"http://muovi.roma.it/percorso/js?query=&cl=1",Europe/Rome,,
ROME1040,71206,"Prenestina/Telese","25 M.DOPO VIA STAZ.PRENESTINA DOPO CIV.241 COR.LAT",41.893333,12.546204,"http://muovi.roma.it/percorso/js?query=&cl=1",Europe/Rome,,
ROME1041,71207,"Nocera Umbra/Narni","",41.878456,12.529622,"",,,
ROME1042,71208,"Nocera Umbra/Otricoli","",41.879116,12.530862,"",,,
ROME1043,71210,"Montecastrilli","",41.876953,12.532315,"",,,
ROME1044,71211,"Nocera Umbra/Otricoli","30 M. DOPO VIA OTRICOLI ALTEZZA CIVICO 129",41.879482,12.530653,"http://muovi.roma.it/percorso/js?query=&cl=1",Europe/Rome,,
ROME1045,71212,"Ostiense/Staz.ne Tor Di Valle","",41.819664,12.436447,"",,,
ROME1046,71213,"Nocera Umbra/Narni","90 M. DOPO VIA MONTEFALCO PRIMA CIVICO 95",41.878613,12.529073,"http://muovi.roma.it/percorso/js?query=&cl=1",Europe/Rome,,
ROME1047,71214,"Prenestina/Olevano Romano","25 M.DOPO VIA OLEVANO ROMANO ALT.CIV.362/D COR.LAT",41.894123,12.555515,"http://muovi.roma.it/percorso/js?query=&cl=1",Europe/Rome,,
ROME1048,71215,"Nocera Umbra/Tuscolana","75 M. DOPO VIA GUBBIO DOPO CIVICO 11/A",41.877151,12.526380,"http://muovi.roma.it/percorso/js?query=&cl=1",Europe/Rome,,
ROME1049,71216,"Prenestina/Tor De' Schiavi","40 M.DOPO VIA TOR DE SCHIAVI PR.CIV.382 (CORSIA LATERALE)",41.894703,12.559910,"http://muovi.roma.it/percorso/js?query=&cl=1",Europe/Rome,,
ROME1050,71217,"Prenestina/Cocconi","25 M.DOPO VIA COCCONI ALT.CIV.412/A CORS.LATERALE",41.894848,12.563566,"http://muovi.roma.it/percorso/js?query=&cl=1",Europe/Rome,,
ROME1051,71218,"Taranto/Lugo","",41.883350,12.520300,"",,,
ROME1052,71219,"Prenestina/Larici","30 M.DOPO VIA DEI LARICI ALT.CIV.510 CORSIA LATERALE - FINE CORSA A10-A60",41.894920,12.573963,"http://muovi.roma.it/percorso/js?query=&cl=1",Europe/Rome,,
ROME1053,71220,"Prenestina/Manfredonia","75 M. DOPO VIA MANFREDONIA - FINE CORSA A70",41.894283,12.577966,"http://muovi.roma.it/percorso/js?query=&cl=1",Europe/Rome,,
ROME1054,71221,"Prenestina/Candiani","30 M. DOPO VIA CANDIANI - INIZIO CORSA A05",41.893650,12.584916,"http://muovi.roma.it/percorso/js?query=&cl=1",Europe/Rome,,
ROME1055,71223,"Porta S. Giovanni","",41.886326,12.508992,"",,,
ROME1056,71224,"Prenestina/Tor Tre Teste","70 M. PRIMA SBOCCO VIA G. DE CHIRICO FRONTE CIVICO 697",41.894024,12.589693,"http://muovi.roma.it/percorso/js?query=&cl=1",Europe/Rome,,
ROME1057,71225,"Tor Sapienza/Rucellai","310 M. DOPO VIA PRENESTINA DOPO FRONTE CIVICO 174",41.896679,12.591809,"http://muovi.roma.it/percorso/js?query=&cl=1",Europe/Rome,,
ROME1058,71226,"Tor Sapienza/Joris","20 M. DOPO VIA ALEMANNI ALTEZZA CIVICO 103",41.898808,12.591236,"http://muovi.roma.it/percorso/js?query=&cl=1",Europe/Rome,,
ROME1059,71227,"Tor Sapienza/Michetti","55 M. DOPO VIA SINDICI ALTEZZA CIVICO 59",41.900341,12.590834,"http://muovi.roma.it/percorso/js?query=&cl=1",Europe/Rome,,
ROME1060,71229,"Tor Sapienza/De Cupis","35 M. PRIMA P.ZA C.DE CUPIS FRONTE CIVICO 4/B",41.903591,12.589979,"http://muovi.roma.it/percorso/js?query=&cl=1",Europe/Rome,,
ROME1061,71230,"Collatina/Tor Sapienza","10 M. PRIMA SBOCCO VIA DELLE MANDRIE",41.904175,12.592875,"http://muovi.roma.it/percorso/js?query=&cl=1",Europe/Rome,,
ROME1063,71238,"Castani/Faggi","105 M. DOPO VIA DELLE ROBINIE ALTEZZA CIVICO 116/D",41.883598,12.566916,"http://muovi.roma.it/percorso/js?query=&cl=1",Europe/Rome,,
ROME1064,71239,"Frassini","80 M. DOPO VIA DEI FAGGI ALTEZZA CIVICO 142",41.884903,12.568283,"http://muovi.roma.it/percorso/js?query=&cl=1",Europe/Rome,,
ROME1066,71241,"Castani/Gelsi","",41.888870,12.565327,"",,,
ROME1067,71242,"Parlatore","25 M. DOPO VIA DELLE ROSE ALTEZZA CIVICO 45 C.LAT.",41.890495,12.564845,"http://muovi.roma.it/percorso/js?query=&cl=1",Europe/Rome,,
ROME1068,71244,"Cocconi","",41.893955,12.563505,"",,,
ROME1069,71245,"Prenestina/Valente","75 M.DOPO SB.V.LE G.B.VALENTE DOPO CIV.468 COR.LAT",41.894951,12.567488,"http://muovi.roma.it/percorso/js?query=&cl=1",Europe/Rome,,
ROME1070,71246,"Togliatti/Prenestina","70 M. DOPO VIA PRENESTINA ALTEZZA CIVICO 997 CORSIA LATERALE",41.894176,12.574403,"http://muovi.roma.it/percorso/js?query=&cl=1",Europe/Rome,,
ROME1071,71247,"Belle Arti","",41.918900,12.474182,"",,,
ROME1072,71248,"Togliatti/Abelie","60 M. DOPO VIA DELLE ABELIE ALT.CIV.953 CORSIA LATERALE",41.892464,12.574153,"http://muovi.roma.it/percorso/js?query=&cl=1",Europe/Rome,,
ROME1073,71249,"Togliatti/Gelsi","55 M. DOPO VIA DELLE PALME ALT.CIV.905 CORSIA LATERALE",41.890610,12.573875,"http://muovi.roma.it/percorso/js?query=&cl=1",Europe/Rome,,
ROME1074,71250,"Molfetta","30 M. DOPO VIA GIOIA DEL COLLE PRIMA CIVICO 22",41.890068,12.575718,"http://muovi.roma.it/percorso/js?query=&cl=1",Europe/Rome,,
ROME1075,71251,"Flaminia/Tor Di Quinto","",41.952061,12.484960,"",,,
ROME1077,71254,"Aldrovandi","",41.918152,12.484638,"",,,
ROME1080,71258,"Alessandrino/Meli","45 M. DOPO VIA DEI MELI DOPO CIVICO 487",41.880680,12.577432,"http://muovi.roma.it/percorso/js?query=&cl=1",Europe/Rome,,
ROME1081,71259,"Rossini","",41.920540,12.491702,"",,,
ROME1082,71260,"Alessandrino/Olmi","50 M. DOPO VIA DEGLI OLMI ALTEZZA CIVICO 399",41.878483,12.578100,"http://muovi.roma.it/percorso/js?query=&cl=1",Europe/Rome,,
ROME1083,71261,"Alessandrino/Oleandri","25 M. DOPO VIA DEGLI OLEANDRI ALTEZZA CIVICO 225",41.875126,12.579348,"http://muovi.roma.it/percorso/js?query=&cl=1",Europe/Rome,,
ROME1084,71262,"Liegi/Ungheria","",41.921761,12.494077,"",,,
ROME1085,71264,"Alessandrino","25 M. PRIMA VIA CASILINA ALTEZZA CIVICO 3",41.871307,12.579713,"http://muovi.roma.it/percorso/js?query=&cl=1",Europe/Rome,,
ROME1086,71265,"Buenos Aires","",41.917725,12.500570,"",,,
ROME1087,71266,"Casilina/Grano","",41.872059,12.576712,"",,,
ROME1088,71267,"V.le Regina Margherita/Nizza","",41.914726,12.504312,"",,,
ROME1089,71270,"V.le Regina Margherita/Nomentana","",41.912491,12.507107,"",,,
ROME1090,71272,"Regina Margherita/Galeno","",41.910877,12.509088,"",,,
ROME1091,71274,"V.le Regina Margherita/Morgagni","",41.909958,12.510243,"",,,
ROME1092,71275,"Policlinico","",41.907501,12.513293,"",,,
ROME1093,71277,"Regina Elena/V.le Universita'","",41.905781,12.515430,"",,,
ROME1094,71278,"Castani/Aceri","25 M. PRIMA VIA DEGLI ACERI ALTEZZA CIVICO 33",41.878498,12.566402,"http://muovi.roma.it/percorso/js?query=&cl=1",Europe/Rome,,
ROME1095,71279,"Universita' La Sapienza","",41.904266,12.517393,"",,,
ROME1096,71280,"Verano","",41.902145,12.518992,"",,,
ROME1097,71281,"Pioppi/Ortensie","25 M. DOPO P.ZA S.FELICE DA CANTALICE ALT.CIV.104",41.877151,12.567235,"http://muovi.roma.it/percorso/js?query=&cl=1",Europe/Rome,,
ROME1098,71282,"Pioppi/Ontani","35 M. PRIMA VIA DELLE MIMOSE DOPO CIVICO 54/B",41.877712,12.570759,"http://muovi.roma.it/percorso/js?query=&cl=1",Europe/Rome,,
ROME1099,71284,"Spighe","",41.876099,12.574397,"",,,
ROME1100,71285,"Verano/De Lollis","",41.901562,12.518512,"",,,
ROME1101,71286,"Bella Villa/Spighe","",41.873802,12.575478,"",,,
ROME1102,71287,"RETI","",41.898838,12.518145,"",,,
ROME1103,71290,"Scalo S. Lorenzo/Sardi","",41.895531,12.518072,"",,,
ROME1104,71291,"Alessandrino/Lamponi","100 M. DOPO VIA DELLA BELLA VILLA ALTEZZA CIVICO 114/A",41.873249,12.580208,"http://muovi.roma.it/percorso/js?query=&cl=1",Europe/Rome,,
ROME1105,71292,"Scalo S. Lorenzo/Talamo","",41.893806,12.516577,"",,,
ROME1106,71293,"Scalo San Lorenzo","",41.893032,12.515937,"",,,
ROME1107,71296,"Ostiense/Staz.ne Vitinia","",41.795704,12.402705,"",,,
ROME1110,71299,"P.za Di Porta Maggiore","",41.891392,12.513932,"",,,
ROME1111,71300,"Molfetta","35 M. DOPO VIA MANFREDONIA ALTEZZA CIVICO 7/A",41.890137,12.575961,"http://muovi.roma.it/percorso/js?query=&cl=1",Europe/Rome,,
ROME1112,71302,"Togliatti/Ostuni","75 M. DOPO VIA OSTUNI PRIMA CIVICO 954 CORSIA LATERALE",41.892384,12.574773,"http://muovi.roma.it/percorso/js?query=&cl=1",Europe/Rome,,
ROME1113,71303,"Togliatti","25 M. PRIMA VIA ASCOLI SATRIANO CORSIA LATERALE",41.893597,12.574939,"http://muovi.roma.it/percorso/js?query=&cl=1",Europe/Rome,,
ROME1114,71304,"Cocconi","",41.893726,12.563457,"",,,
ROME1115,71306,"Parlatore","25 M. DOPO VIA CAVARA ALTEZZA CIVICO 40",41.890423,12.564427,"http://muovi.roma.it/percorso/js?query=&cl=1",Europe/Rome,,
ROME1116,71307,"Castani/Gelsi","",41.888172,12.565437,"",,,
ROME1117,71308,"Castani/Gardenie","",41.886330,12.566113,"",,,
ROME1118,71309,"Castani/Robinie","40 M. DOPO VIA DEGLI ARBUSTI ALTEZZA CIVICO 143",41.883244,12.566741,"http://muovi.roma.it/percorso/js?query=&cl=1",Europe/Rome,,
ROME1119,71311,"Bresadola","",41.892803,12.561517,"",,,
ROME1120,71313,"Castani/Gelsi","",41.888775,12.565207,"",,,
ROME1121,71314,"Fucini/Davanzati","",41.946072,12.552112,"",,,
ROME1122,71316,"Castani/Faggi","",41.884373,12.566732,"",,,
ROME1123,71317,"Gerani","",41.885925,12.566678,"",,,
ROME1126,71320,"Parlatore","",41.891022,12.564667,"",,,
ROME1127,71321,"S. Paolo Del Brasile","",41.910477,12.487402,"",,,
ROME1128,71322,"Scalo S. Lorenzo","",41.893059,12.516138,"",,,
ROME1129,71329,"Porta S. Sebastiano","20 M. DOPO VLE DI PORTA ARDEATINA",41.872978,12.501600,"http://muovi.roma.it/percorso/js?query=&cl=1",Europe/Rome,,
ROME1130,71330,"Appia Antica/Travicella","60 M. DOPO VIA DELLA TRAVICELLA PRIMA CIVICO 28",41.869331,12.502144,"http://muovi.roma.it/percorso/js?query=&cl=1",Europe/Rome,,
ROME1131,71331,"Appia Antica/Domine Quo Vadis","",41.866951,12.502923,"",,,
ROME1132,71332,"Appia Antica/Caffarella","",41.864929,12.506055,"",,,
ROME1133,71333,"Appia Antica/Scuola Agraria","",41.862091,12.509315,"",,,
ROME1134,71334,"Catacombe S.callisto","",41.859764,12.511935,"",,,
ROME1135,71335,"Scalo S. Lorenzo/Talamo","",41.893929,12.516922,"",,,
ROME1136,71337,"Scalo S. Lorenzo/Sardi","",41.895493,12.518282,"",,,
ROME1137,71344,"RETI","",41.899052,12.518125,"",,,
ROME1138,71345,"Verano/De Lollis","",41.901249,12.518415,"",,,
ROME1142,71351,"Verano","",41.902336,12.519273,"",,,
ROME1143,71353,"Universita' La Sapienza","",41.904194,12.517610,"",,,
ROME1144,71355,"Policlinico","",41.907322,12.513707,"",,,
ROME1145,71357,"Appia Pignatelli/Erode Attico","100 M. DOPO VIA ANNIA REGILLA PRIMA CIVICO 269",41.840405,12.544739,"http://muovi.roma.it/percorso/js?query=&cl=1",Europe/Rome,,
ROME1146,71358,"Appia Pignatelli/Carvilii","20 M. PRIMA VIA DEI CARVILII DOPO CIVICO 376/A",41.841248,12.543470,"http://muovi.roma.it/percorso/js?query=&cl=1",Europe/Rome,,
ROME1147,71359,"V.le Regina Margherita/Nizza","",41.914532,12.504777,"",,,
ROME1149,71363,"Buenos Aires","",41.917992,12.500400,"",,,
ROME1150,71366,"Rossini","",41.920971,12.491990,"",,,
ROME1151,71369,"Bioparco","",41.919247,12.490538,"",,,
ROME1152,71372,"Appia Antica/Scuola Agraria","",41.862099,12.509540,"",,,
ROME1153,71373,"Aldrovandi","",41.918781,12.485500,"",,,
ROME1154,71374,"Appia Antica/Caffarella","",41.865837,12.505152,"",,,
ROME1155,71375,"Appia Antica/Domine Quo Vadis","35 M. DOPO SBOCCO CNE ARDEATINA DOPO CIVICO 43",41.867466,12.502901,"http://muovi.roma.it/percorso/js?query=&cl=1",Europe/Rome,,
ROME1156,71376,"Appia Antica/Travicella","25 M. PRIMA SBOCCO VIA DELLA TRAVICELLA DOPO CIVICO 21",41.869621,12.502238,"http://muovi.roma.it/percorso/js?query=&cl=1",Europe/Rome,,
ROME1158,71378,"Galleria Arte Moderna","",41.916721,12.481525,"",,,
ROME1159,71379,"Museo Etrusco Villa Giulia","",41.918770,12.476913,"",,,
ROME1160,71384,"Navicella/Porta Metronia","",41.882744,12.497377,"",,,
ROME1161,71385,"Pirandello","",41.947350,12.563032,"",,,
ROME1162,71386,"Deledda","",41.945637,12.561160,"",,,
ROME1163,71393,"Stampa/Negri","",41.946400,12.559973,"",,,
ROME9429,71394,"Due Macelli/Capo Le Case","",41.903633,12.484780,"",,,
ROME1164,71401,"Pannini","",41.928257,12.463240,"",,,
ROME1165,71402,"Ostiense/Cavalcavia Acilia","",41.787247,12.370137,"",,,
ROME1166,71404,"Nizza/V.le Regina Margherita","",41.914242,12.503873,"",,,
ROME1167,71405,"C.so D'italia/Po","",41.910805,12.493592,"",,,
ROME1168,71406,"Calabria","",41.910095,12.497942,"",,,
ROME1169,71408,"Montalcini/Ripandelli","",41.849319,12.452705,"",,,
ROME1170,71409,"C.so D'italia/Po","",41.910938,12.493137,"",,,
ROME1171,71410,"Folchi/Ramazzini","40 M. PRIMA FRONTE CIVICO 15",41.867649,12.453620,"http://muovi.roma.it/percorso/js?query=&cl=1",Europe/Rome,,
ROME1172,71411,"Folchi/Ramazzini","20 M. DOPO CIVICO 15",41.867653,12.453252,"http://muovi.roma.it/percorso/js?query=&cl=1",Europe/Rome,,
ROME1173,71415,"Tor Marancia/Lotto","",41.852299,12.498388,"",,,
ROME1176,71418,"Candoni/Magliana","40 M. PRIMA VIA DELLA MAGLIANA - INIZIO CORSA M01-M02-M03-M04-M05",41.828659,12.416174,"http://muovi.roma.it/percorso/js?query=&cl=1",Europe/Rome,,
ROME1177,71420,"Magliana/Delle Vigne","",41.832870,12.422253,"",,,
ROME1178,71421,"Magliana/Pino Lecce","",41.834332,12.425745,"",,,
ROME1180,71423,"Tempio Arvali/Trullo","",41.834595,12.434762,"",,,
ROME1181,71424,"Trullo/Magliana","60 M. DOPO VIA TEMPIO DEGLI ARVALI PRIMA SOTTOPASSO.FS",41.834213,12.436390,"http://muovi.roma.it/percorso/js?query=&cl=1",Europe/Rome,,
ROME1182,71425,"Magliana/Avenza","7 M. PRIMA CIVICO 481",41.833336,12.439961,"http://muovi.roma.it/percorso/js?query=&cl=1",Europe/Rome,,
ROME1183,71426,"Magliana/Idrovore Magliana","80 M. PRIMA VIA IDROVORE DELLA MAGLIANA",41.834408,12.448258,"http://muovi.roma.it/percorso/js?query=&cl=1",Europe/Rome,,
ROME1184,71427,"Magliana/Asciano","20 M. PRIMA CIVICO 375",41.837311,12.450636,"http://muovi.roma.it/percorso/js?query=&cl=1",Europe/Rome,,
ROME1185,71428,"Magliana/Imbrecciato","",41.839523,12.453480,"",,,
ROME1186,71429,"Magliana/Aulla","",41.844730,12.456252,"",,,
ROME1187,71430,"Magliana/Impruneta","",41.847652,12.457775,"",,,
ROME1188,71431,"Magliana/Villa Bonelli","",41.850014,12.458970,"",,,
ROME1189,71433,"Magliana/Grottoni","",41.855591,12.458737,"",,,
ROME1190,71434,"Magliana/S. Passera","",41.858757,12.460257,"",,,
ROME1191,71435,"Oderisi Da Gubbio/Meucci","",41.862701,12.464235,"",,,
ROME1192,71436,"Oderisi Da Gubbio/Grimaldi","",41.865715,12.465505,"",,,
ROME1193,71437,"Oderisi Da Gubbio/Papa","",41.868816,12.466972,"",,,
ROME1194,71438,"Prina","40 M. DOPO PZA OTTAVIANO VIMERCATI",41.957863,12.523254,"http://muovi.roma.it/percorso/js?query=&cl=1",Europe/Rome,,
ROME1195,71440,"P.za Della Radio","60 M. DOPO SBOCCO VIA PACINOTTI",41.870358,12.467383,"http://muovi.roma.it/percorso/js?query=&cl=1",Europe/Rome,,
ROME1196,71441,"Oderisi Da Gubbio/Papa","",41.868542,12.466685,"",,,
ROME1197,71442,"Oderisi Da Gubbio/Grimaldi","",41.865955,12.465500,"",,,
ROME1198,71443,"Oderisi Da Gubbio/Meucci","",41.862896,12.464147,"",,,
ROME1199,71444,"Magliana/S. Passera","",41.858894,12.460213,"",,,
ROME1200,71445,"Magliana/Grottoni","",41.854748,12.458402,"",,,
ROME1201,71446,"Magliana/Caprese","",41.851742,12.459248,"",,,
ROME1202,71447,"Magliana/Villa Bonelli","",41.849850,12.458675,"",,,
ROME1203,71448,"Magliana/Impruneta","45 M. DOPO VIA MIGLIOLI ALTEZZA CIVICO 262",41.846714,12.457086,"http://muovi.roma.it/percorso/js?query=&cl=1",Europe/Rome,,
ROME1204,71449,"Magliana/Scarperia","40 M. DOPO SBOCCO VIA SCARPERIA",41.844269,12.455881,"http://muovi.roma.it/percorso/js?query=&cl=1",Europe/Rome,,
ROME1205,71450,"Magliana/Imbrecciato","10 M. PRIMA VIA DELL'IMBRECCIATO",41.839668,12.453119,"http://muovi.roma.it/percorso/js?query=&cl=1",Europe/Rome,,
ROME1206,71451,"Magliana/Asciano","60 M. DOPO FRONTE CIVICO 375",41.836819,12.449966,"http://muovi.roma.it/percorso/js?query=&cl=1",Europe/Rome,,
ROME1207,71452,"Magliana/Idrovore Magliana","130 M. DOPO SBOCCO VIA IDROVORE DELLA MAGLIANA",41.833954,12.447486,"http://muovi.roma.it/percorso/js?query=&cl=1",Europe/Rome,,
ROME1208,71453,"Magliana/Avenza","FRONTE CIVICO 501",41.833580,12.439298,"http://muovi.roma.it/percorso/js?query=&cl=1",Europe/Rome,,
ROME1209,71454,"Magliana/Trullo","40 M. PRIMA SOTTOVIA FERROVIARIO FRONTE CIVICO 521",41.833828,12.437098,"http://muovi.roma.it/percorso/js?query=&cl=1",Europe/Rome,,
ROME1210,71455,"Tempio Arvali/Trullo","",41.834572,12.434290,"",,,
ROME1211,71456,"Staz Magliana","",41.834599,12.430457,"",,,
ROME1212,71457,"Magliana/Pino Lecce","",41.834042,12.424190,"",,,
ROME1213,71458,"Magliana/Delle Vigne","",41.832314,12.421348,"",,,
ROME1214,71460,"Candoni/Magliana","25 M. DOPO VIA DELLA MAGLIANA - FINE CORSA M10-M20-M30-M40-M50",41.828766,12.416390,"http://muovi.roma.it/percorso/js?query=&cl=1",Europe/Rome,,
ROME1215,71461,"Salaria/Piombino","30 M. PRIMA PONTE FERROVIARIO DOPO CIVICO 1525 - CAPOLINEA  039-135",42.012123,12.520709,"http://muovi.roma.it/percorso/js?query=&cl=1",Europe/Rome,,
ROME1216,71462,"Salaria/Salita Marcigliana","20 M. DOPO SBOCCO SALITA DELLA MARCIGLIANA PRIMA CIVICO 1497",42.009510,12.519652,"http://muovi.roma.it/percorso/js?query=&cl=1",Europe/Rome,,
ROME1217,71463,"Salaria/Settebagni","KM. 14+500 ALTEZZA CIVICO 1443",42.007729,12.518985,"http://muovi.roma.it/percorso/js?query=&cl=1",Europe/Rome,,
ROME1218,71465,"Salaria/S. Antonio Da Padova","25 M. DOPO SBOCCO VIA S.ANTONIO DA PADOVA PRIMA CIVICO 1387",42.003422,12.518168,"http://muovi.roma.it/percorso/js?query=&cl=1",Europe/Rome,,
ROME1219,71466,"Salaria/Casale Settebagni","KM.13+320 SINISTRA ALTEZZA CIVICO 1313/D            S.S.4",41.997471,12.517249,"http://muovi.roma.it/percorso/js?query=&cl=1",Europe/Rome,,
ROME1220,71467,"Salaria/G.r.a.","KM. 12+880 45 M. DOPO CIVICO 1259          S.S.4",41.993546,12.514666,"http://muovi.roma.it/percorso/js?query=&cl=1",Europe/Rome,,
ROME1221,71468,"Salaria/Grottazzolina","50 M. DOPO VIA GROTTAZZOLINA DOPO CIVICO 1205",41.986656,12.510805,"http://muovi.roma.it/percorso/js?query=&cl=1",Europe/Rome,,
ROME1222,71469,"Salaria/Castel Giubileo","50 M. PRIMA VIA CASTEL GIUBILEO",41.984966,12.509063,"http://muovi.roma.it/percorso/js?query=&cl=1",Europe/Rome,,
ROME1232,71480,"Montebuono","30 M. DOPO VIA MONTEROTONDO ALTEZ.CIVICO 12/A",41.933739,12.513095,"http://muovi.roma.it/percorso/js?query=&cl=1",Europe/Rome,,
ROME1233,71481,"Stimigliano","25 M. DOPO VIA TORRI IN SABINA ALTEZZA CIVICO 5",41.934677,12.511934,"http://muovi.roma.it/percorso/js?query=&cl=1",Europe/Rome,,
ROME1234,71482,"Somalia/Terziani","84 M. PRIMA VIA SALARIA ALTEZZA CIVICO 13",41.935646,12.509990,"http://muovi.roma.it/percorso/js?query=&cl=1",Europe/Rome,,
